,ID,City Name,Lat,Long,Temperature,Humidity,Windiness,Cloudiness,URL
0,934661,Camp de Masque,-20.24,57.66,71.59999999999997,78,1.5,75,http://api.openweathermap.org/data/2.5/weather?id=934661&APPID=8fc2ca8ae2ccc44f2e41f875f37e5caf
1,1278629,State of Andhra Pradesh,16.0,79.0,79.68380000000008,77,1.61,0,http://api.openweathermap.org/data/2.5/weather?id=1278629&APPID=8fc2ca8ae2ccc44f2e41f875f37e5caf
2,677205,Garcov,43.77,24.63,66.2738,60,2.29,32,http://api.openweathermap.org/data/2.5/weather?id=677205&APPID=8fc2ca8ae2ccc44f2e41f875f37e5caf
3,7612735,Ruis,-8.37,120.43,69.60380000000004,100,1.61,44,http://api.openweathermap.org/data/2.5/weather?id=7612735&APPID=8fc2ca8ae2ccc44f2e41f875f37e5caf
4,6536605,Valeggio sul Mincio,45.35,10.74,73.39999999999992,69,1.5,75,http://api.openweathermap.org/data/2.5/weather?id=6536605&APPID=8fc2ca8ae2ccc44f2e41f875f37e5caf
5,6615854,Portel-des-Corbières,43.05,2.92,63.787999999999954,82,1.0,0,http://api.openweathermap.org/data/2.5/weather?id=6615854&APPID=8fc2ca8ae2ccc44f2e41f875f37e5caf
6,3084965,Stara Dabrowa,53.42,15.14,71.59999999999997,53,2.6,20,http://api.openweathermap.org/data/2.5/weather?id=3084965&APPID=8fc2ca8ae2ccc44f2e41f875f37e5caf
7,3003589,Le Marcet,45.21,3.5,62.599999999999966,82,1.5,0,http://api.openweathermap.org/data/2.5/weather?id=3003589&APPID=8fc2ca8ae2ccc44f2e41f875f37e5caf
8,1255987,Sital,27.97,73.6,84.54379999999998,54,3.84,0,http://api.openweathermap.org/data/2.5/weather?id=1255987&APPID=8fc2ca8ae2ccc44f2e41f875f37e5caf
9,6360278,Aldearrubia,41.0,-5.5,58.99999999999994,72,5.7,20,http://api.openweathermap.org/data/2.5/weather?id=6360278&APPID=8fc2ca8ae2ccc44f2e41f875f37e5caf
10,1804440,Lanxi,30.35,115.14,66.63380000000001,97,3.06,100,http://api.openweathermap.org/data/2.5/weather?id=1804440&APPID=8fc2ca8ae2ccc44f2e41f875f37e5caf
11,7780389,Cilanggar,-6.33,106.04,67.6237999999999,94,1.44,0,http://api.openweathermap.org/data/2.5/weather?id=7780389&APPID=8fc2ca8ae2ccc44f2e41f875f37e5caf
12,6616175,Port-Sainte-Foy-et-Ponchapt,44.84,0.21,62.599999999999966,93,2.6,88,http://api.openweathermap.org/data/2.5/weather?id=6616175&APPID=8fc2ca8ae2ccc44f2e41f875f37e5caf
13,1705190,Lumbang,14.3,121.46,84.19999999999999,70,3.19,75,http://api.openweathermap.org/data/2.5/weather?id=1705190&APPID=8fc2ca8ae2ccc44f2e41f875f37e5caf
14,3457126,Mira Estrela,-19.98,-50.14,78.42379999999997,47,1.61,76,http://api.openweathermap.org/data/2.5/weather?id=3457126&APPID=8fc2ca8ae2ccc44f2e41f875f37e5caf
15,935076,Hluti,-27.22,31.62,55.203799999999944,87,1.61,44,http://api.openweathermap.org/data/2.5/weather?id=935076&APPID=8fc2ca8ae2ccc44f2e41f875f37e5caf
16,3173829,Marzabotto,44.34,11.2,74.2100000000001,78,2.6,75,http://api.openweathermap.org/data/2.5/weather?id=3173829&APPID=8fc2ca8ae2ccc44f2e41f875f37e5caf
17,640758,Pukinmäki,60.24,24.99,64.39999999999992,42,5.1,0,http://api.openweathermap.org/data/2.5/weather?id=640758&APPID=8fc2ca8ae2ccc44f2e41f875f37e5caf
18,656807,Iitti,60.89,26.34,60.80000000000001,48,4.6,0,http://api.openweathermap.org/data/2.5/weather?id=656807&APPID=8fc2ca8ae2ccc44f2e41f875f37e5caf
19,789888,Janosik,45.17,21.01,73.95799999999991,47,6.2,0,http://api.openweathermap.org/data/2.5/weather?id=789888&APPID=8fc2ca8ae2ccc44f2e41f875f37e5caf
20,752015,Amasya,40.65,35.83,62.599999999999966,67,3.6,75,http://api.openweathermap.org/data/2.5/weather?id=752015&APPID=8fc2ca8ae2ccc44f2e41f875f37e5caf
21,6554925,Weisenheim am Berg,49.51,8.15,76.94599999999997,44,2.6,0,http://api.openweathermap.org/data/2.5/weather?id=6554925&APPID=8fc2ca8ae2ccc44f2e41f875f37e5caf
22,7701425,Kambos,38.32,26.12,75.19999999999999,60,3.1,20,http://api.openweathermap.org/data/2.5/weather?id=7701425&APPID=8fc2ca8ae2ccc44f2e41f875f37e5caf
23,2793656,Laeken,50.88,4.35,74.67800000000005,60,2.6,20,http://api.openweathermap.org/data/2.5/weather?id=2793656&APPID=8fc2ca8ae2ccc44f2e41f875f37e5caf
24,6361237,Villasayas,41.36,-2.62,50.43380000000002,92,1.24,44,http://api.openweathermap.org/data/2.5/weather?id=6361237&APPID=8fc2ca8ae2ccc44f2e41f875f37e5caf
25,2789237,Pecq,50.69,3.36,65.4260000000001,60,0.61,0,http://api.openweathermap.org/data/2.5/weather?id=2789237&APPID=8fc2ca8ae2ccc44f2e41f875f37e5caf
26,6077183,Montney,56.45,-120.92,53.599999999999966,71,5.7,75,http://api.openweathermap.org/data/2.5/weather?id=6077183&APPID=8fc2ca8ae2ccc44f2e41f875f37e5caf
27,8180863,Tegalrejo,-8.33,112.95,72.48380000000003,99,3.19,0,http://api.openweathermap.org/data/2.5/weather?id=8180863&APPID=8fc2ca8ae2ccc44f2e41f875f37e5caf
28,4529353,Anadarko,35.07,-98.24,92.94800000000004,46,4.6,1,http://api.openweathermap.org/data/2.5/weather?id=4529353&APPID=8fc2ca8ae2ccc44f2e41f875f37e5caf
29,6555145,Ruthweiler,49.55,7.37,73.00399999999996,53,3.1,75,http://api.openweathermap.org/data/2.5/weather?id=6555145&APPID=8fc2ca8ae2ccc44f2e41f875f37e5caf
30,3178505,Codigoro,44.83,12.11,75.19999999999999,78,1.0,20,http://api.openweathermap.org/data/2.5/weather?id=3178505&APPID=8fc2ca8ae2ccc44f2e41f875f37e5caf
31,4963642,Eliot,43.15,-70.8,71.43800000000005,48,5.7,20,http://api.openweathermap.org/data/2.5/weather?id=4963642&APPID=8fc2ca8ae2ccc44f2e41f875f37e5caf
32,3079031,Bordovice,49.55,18.15,66.90199999999999,60,2.6,0,http://api.openweathermap.org/data/2.5/weather?id=3079031&APPID=8fc2ca8ae2ccc44f2e41f875f37e5caf
33,2750965,Menaam,53.22,5.66,66.46999999999997,88,3.1,90,http://api.openweathermap.org/data/2.5/weather?id=2750965&APPID=8fc2ca8ae2ccc44f2e41f875f37e5caf
34,6362351,Zaratán,41.66,-4.79,57.19999999999999,76,4.6,20,http://api.openweathermap.org/data/2.5/weather?id=6362351&APPID=8fc2ca8ae2ccc44f2e41f875f37e5caf
35,2804207,Ziltendorf,52.21,14.62,73.29379999999998,49,4.31,24,http://api.openweathermap.org/data/2.5/weather?id=2804207&APPID=8fc2ca8ae2ccc44f2e41f875f37e5caf
36,2634405,West Hallam,52.97,-1.36,57.79400000000004,100,2.1,75,http://api.openweathermap.org/data/2.5/weather?id=2634405&APPID=8fc2ca8ae2ccc44f2e41f875f37e5caf
37,4824515,Terra Alta,39.45,-79.55,79.88000000000005,74,3.6,40,http://api.openweathermap.org/data/2.5/weather?id=4824515&APPID=8fc2ca8ae2ccc44f2e41f875f37e5caf
38,6552747,Rhade,53.33,9.12,75.21800000000002,64,1.5,0,http://api.openweathermap.org/data/2.5/weather?id=6552747&APPID=8fc2ca8ae2ccc44f2e41f875f37e5caf
39,477466,Uzunovo,54.54,38.62,60.8737999999999,41,4.14,0,http://api.openweathermap.org/data/2.5/weather?id=477466&APPID=8fc2ca8ae2ccc44f2e41f875f37e5caf
40,1276686,Bauda,20.83,84.32,80.67379999999997,87,1.24,44,http://api.openweathermap.org/data/2.5/weather?id=1276686&APPID=8fc2ca8ae2ccc44f2e41f875f37e5caf
41,3445895,Turvo,-28.93,-49.68,64.83380000000005,64,1.61,12,http://api.openweathermap.org/data/2.5/weather?id=3445895&APPID=8fc2ca8ae2ccc44f2e41f875f37e5caf
42,3118226,Llombera,42.84,-5.59,55.39999999999992,71,4.1,40,http://api.openweathermap.org/data/2.5/weather?id=3118226&APPID=8fc2ca8ae2ccc44f2e41f875f37e5caf
43,3013326,Heume-l'Église,45.72,2.73,62.599999999999966,82,1.5,0,http://api.openweathermap.org/data/2.5/weather?id=3013326&APPID=8fc2ca8ae2ccc44f2e41f875f37e5caf
44,3597976,Concepcion Tutuapa,15.28,-91.78,65.73380000000003,94,1.04,88,http://api.openweathermap.org/data/2.5/weather?id=3597976&APPID=8fc2ca8ae2ccc44f2e41f875f37e5caf
45,6122037,Richelieu,45.44,-73.25,81.01399999999995,39,4.6,1,http://api.openweathermap.org/data/2.5/weather?id=6122037&APPID=8fc2ca8ae2ccc44f2e41f875f37e5caf
46,2151156,Ropeley,-27.67,152.27,36.446000000000026,86,4.21,0,http://api.openweathermap.org/data/2.5/weather?id=2151156&APPID=8fc2ca8ae2ccc44f2e41f875f37e5caf
47,7872388,Sankt Johann am Tauern,47.38,14.47,66.19999999999999,77,2.6,12,http://api.openweathermap.org/data/2.5/weather?id=7872388&APPID=8fc2ca8ae2ccc44f2e41f875f37e5caf
48,3754114,Parque das Laranjeiras,-3.06,-60.01,77.89999999999992,83,2.6,75,http://api.openweathermap.org/data/2.5/weather?id=3754114&APPID=8fc2ca8ae2ccc44f2e41f875f37e5caf
49,7287054,Sarmenstorf,47.31,8.25,67.56800000000004,93,3.6,75,http://api.openweathermap.org/data/2.5/weather?id=7287054&APPID=8fc2ca8ae2ccc44f2e41f875f37e5caf
50,2938535,Degmarn,49.25,9.29,75.21800000000002,60,2.1,75,http://api.openweathermap.org/data/2.5/weather?id=2938535&APPID=8fc2ca8ae2ccc44f2e41f875f37e5caf
51,174782,Shaghat,39.56,45.91,58.99999999999994,72,2.1,40,http://api.openweathermap.org/data/2.5/weather?id=174782&APPID=8fc2ca8ae2ccc44f2e41f875f37e5caf
52,2843636,Rottweil,48.17,8.63,62.853800000000035,79,2.14,56,http://api.openweathermap.org/data/2.5/weather?id=2843636&APPID=8fc2ca8ae2ccc44f2e41f875f37e5caf
53,147622,,38.75,48.85,58.99999999999994,82,1.14,40,http://api.openweathermap.org/data/2.5/weather?id=147622&APPID=8fc2ca8ae2ccc44f2e41f875f37e5caf
54,4769125,Leesburg,39.12,-77.56,77.27000000000004,94,2.1,90,http://api.openweathermap.org/data/2.5/weather?id=4769125&APPID=8fc2ca8ae2ccc44f2e41f875f37e5caf
55,2161684,Kellys Plains,-30.58,151.63,29.013799999999947,88,2.01,0,http://api.openweathermap.org/data/2.5/weather?id=2161684&APPID=8fc2ca8ae2ccc44f2e41f875f37e5caf
56,6556271,Unterdießen,47.98,10.83,68.63000000000005,64,3.1,8,http://api.openweathermap.org/data/2.5/weather?id=6556271&APPID=8fc2ca8ae2ccc44f2e41f875f37e5caf
57,4816520,New Martinsville,39.64,-80.86,82.39999999999992,65,3.6,20,http://api.openweathermap.org/data/2.5/weather?id=4816520&APPID=8fc2ca8ae2ccc44f2e41f875f37e5caf
58,2170435,Coorparoo,-27.49,153.06,43.322,57,6.7,0,http://api.openweathermap.org/data/2.5/weather?id=2170435&APPID=8fc2ca8ae2ccc44f2e41f875f37e5caf
59,2833511,Segnitz,49.67,10.14,72.89600000000002,60,2.1,75,http://api.openweathermap.org/data/2.5/weather?id=2833511&APPID=8fc2ca8ae2ccc44f2e41f875f37e5caf
60,672532,Nalbant,45.05,28.62,64.39999999999992,48,1.5,0,http://api.openweathermap.org/data/2.5/weather?id=672532&APPID=8fc2ca8ae2ccc44f2e41f875f37e5caf
61,1811573,Fanggaoping,30.69,114.93,66.19999999999999,93,5.0,20,http://api.openweathermap.org/data/2.5/weather?id=1811573&APPID=8fc2ca8ae2ccc44f2e41f875f37e5caf
62,1803842,Lianzhou,21.67,109.17,81.30379999999997,94,2.74,12,http://api.openweathermap.org/data/2.5/weather?id=1803842&APPID=8fc2ca8ae2ccc44f2e41f875f37e5caf
63,3186679,Zboriste,45.15,16.02,73.39999999999992,60,1.5,0,http://api.openweathermap.org/data/2.5/weather?id=3186679&APPID=8fc2ca8ae2ccc44f2e41f875f37e5caf
64,2756351,Eerbeek,52.1,6.06,73.47200000000004,73,0.5,32,http://api.openweathermap.org/data/2.5/weather?id=2756351&APPID=8fc2ca8ae2ccc44f2e41f875f37e5caf
65,3107784,Torrejon de Ardoz,40.46,-3.47,62.18599999999998,93,1.0,75,http://api.openweathermap.org/data/2.5/weather?id=3107784&APPID=8fc2ca8ae2ccc44f2e41f875f37e5caf
66,6432290,Lugasson,44.75,-0.17,63.48200000000003,72,4.1,0,http://api.openweathermap.org/data/2.5/weather?id=6432290&APPID=8fc2ca8ae2ccc44f2e41f875f37e5caf
67,3012200,Jouques,43.64,5.64,67.98200000000003,73,2.6,90,http://api.openweathermap.org/data/2.5/weather?id=3012200&APPID=8fc2ca8ae2ccc44f2e41f875f37e5caf
68,1709229,Kapinkong,6.67,124.63,72.75380000000001,100,0.76,88,http://api.openweathermap.org/data/2.5/weather?id=1709229&APPID=8fc2ca8ae2ccc44f2e41f875f37e5caf
69,6358199,Cerro de Andévalo (El),37.72,-7.02,64.38380000000001,62,4.14,12,http://api.openweathermap.org/data/2.5/weather?id=6358199&APPID=8fc2ca8ae2ccc44f2e41f875f37e5caf
70,6362262,Rueda,41.41,-4.99,58.44199999999995,76,4.6,20,http://api.openweathermap.org/data/2.5/weather?id=6362262&APPID=8fc2ca8ae2ccc44f2e41f875f37e5caf
71,2875423,Ludersheim,49.39,11.32,73.02199999999999,56,2.6,0,http://api.openweathermap.org/data/2.5/weather?id=2875423&APPID=8fc2ca8ae2ccc44f2e41f875f37e5caf
72,2874958,Lutau,53.43,10.55,73.84999999999997,57,1.0,40,http://api.openweathermap.org/data/2.5/weather?id=2874958&APPID=8fc2ca8ae2ccc44f2e41f875f37e5caf
73,3529243,El Castillo,19.53,-96.85,87.42379999999997,70,2.04,8,http://api.openweathermap.org/data/2.5/weather?id=3529243&APPID=8fc2ca8ae2ccc44f2e41f875f37e5caf
74,1697387,Oaqui,16.86,120.41,68.88380000000001,93,1.66,0,http://api.openweathermap.org/data/2.5/weather?id=1697387&APPID=8fc2ca8ae2ccc44f2e41f875f37e5caf
75,2642005,Muirkirk,55.52,-4.07,61.30400000000003,82,1.5,40,http://api.openweathermap.org/data/2.5/weather?id=2642005&APPID=8fc2ca8ae2ccc44f2e41f875f37e5caf
76,2896882,Huttisheim,48.28,9.94,69.81800000000004,60,2.1,75,http://api.openweathermap.org/data/2.5/weather?id=2896882&APPID=8fc2ca8ae2ccc44f2e41f875f37e5caf
77,766376,Leszczyny,51.9,21.65,69.80000000000001,56,1.5,0,http://api.openweathermap.org/data/2.5/weather?id=766376&APPID=8fc2ca8ae2ccc44f2e41f875f37e5caf
78,1688017,Santa Maria,16.95,120.44,68.88380000000001,93,1.66,0,http://api.openweathermap.org/data/2.5/weather?id=1688017&APPID=8fc2ca8ae2ccc44f2e41f875f37e5caf
79,8010541,Alcobaça,39.55,-8.99,60.80000000000001,82,3.1,40,http://api.openweathermap.org/data/2.5/weather?id=8010541&APPID=8fc2ca8ae2ccc44f2e41f875f37e5caf
80,2160297,Leura,-33.72,150.33,35.599999999999966,100,2.1,0,http://api.openweathermap.org/data/2.5/weather?id=2160297&APPID=8fc2ca8ae2ccc44f2e41f875f37e5caf
81,3606250,Las Vegas,15.02,-87.45,82.74380000000002,81,0.44,12,http://api.openweathermap.org/data/2.5/weather?id=3606250&APPID=8fc2ca8ae2ccc44f2e41f875f37e5caf
82,8014509,Vila Praia de Âncora,41.82,-8.85,58.15400000000005,87,2.6,75,http://api.openweathermap.org/data/2.5/weather?id=8014509&APPID=8fc2ca8ae2ccc44f2e41f875f37e5caf
83,2895212,Jänickendorf,52.05,13.25,69.29599999999999,93,1.5,75,http://api.openweathermap.org/data/2.5/weather?id=2895212&APPID=8fc2ca8ae2ccc44f2e41f875f37e5caf
84,898905,Sesheke,-17.48,24.3,61.05379999999997,72,1.49,0,http://api.openweathermap.org/data/2.5/weather?id=898905&APPID=8fc2ca8ae2ccc44f2e41f875f37e5caf
85,2780450,Edelsgrub,47.03,15.6,67.892,82,1.5,20,http://api.openweathermap.org/data/2.5/weather?id=2780450&APPID=8fc2ca8ae2ccc44f2e41f875f37e5caf
86,3027793,Cesny-aux-Vignes,49.09,-0.12,67.99999999999994,77,1.0,0,http://api.openweathermap.org/data/2.5/weather?id=3027793&APPID=8fc2ca8ae2ccc44f2e41f875f37e5caf
87,4251185,Teutopolis,39.13,-88.47,80.25799999999998,94,3.6,75,http://api.openweathermap.org/data/2.5/weather?id=4251185&APPID=8fc2ca8ae2ccc44f2e41f875f37e5caf
88,2468625,Mutuelleville,36.84,10.16,69.78199999999998,68,3.1,20,http://api.openweathermap.org/data/2.5/weather?id=2468625&APPID=8fc2ca8ae2ccc44f2e41f875f37e5caf
89,6418616,Verkhniy Krasnyy Yar,56.14,44.97,50.79380000000003,50,7.24,44,http://api.openweathermap.org/data/2.5/weather?id=6418616&APPID=8fc2ca8ae2ccc44f2e41f875f37e5caf
90,2993085,Montaigu-les-Bois,48.89,-1.28,66.19999999999999,82,2.6,0,http://api.openweathermap.org/data/2.5/weather?id=2993085&APPID=8fc2ca8ae2ccc44f2e41f875f37e5caf
91,7839717,Coonamble,-30.87,148.29,39.4538,95,3.61,0,http://api.openweathermap.org/data/2.5/weather?id=7839717&APPID=8fc2ca8ae2ccc44f2e41f875f37e5caf
92,1269064,Jetpur,22.35,73.83,82.47379999999993,81,5.31,0,http://api.openweathermap.org/data/2.5/weather?id=1269064&APPID=8fc2ca8ae2ccc44f2e41f875f37e5caf
93,7873662,Flirsch,47.14,10.41,53.599999999999966,81,2.1,75,http://api.openweathermap.org/data/2.5/weather?id=7873662&APPID=8fc2ca8ae2ccc44f2e41f875f37e5caf
94,3179720,Casteldelfino,44.59,7.07,58.783999999999935,100,2.1,75,http://api.openweathermap.org/data/2.5/weather?id=3179720&APPID=8fc2ca8ae2ccc44f2e41f875f37e5caf
95,3078872,Bozice,48.84,16.29,69.33199999999994,68,3.1,0,http://api.openweathermap.org/data/2.5/weather?id=3078872&APPID=8fc2ca8ae2ccc44f2e41f875f37e5caf
96,1784928,Zhaogezhuang,39.78,117.2,62.599999999999966,67,1.0,0,http://api.openweathermap.org/data/2.5/weather?id=1784928&APPID=8fc2ca8ae2ccc44f2e41f875f37e5caf
97,3440033,Departamento de Tacuarembó,-32.17,-55.5,63.843800000000044,99,4.59,92,http://api.openweathermap.org/data/2.5/weather?id=3440033&APPID=8fc2ca8ae2ccc44f2e41f875f37e5caf
98,4309097,Southgate,39.07,-84.47,76.71200000000005,94,5.1,20,http://api.openweathermap.org/data/2.5/weather?id=4309097&APPID=8fc2ca8ae2ccc44f2e41f875f37e5caf
99,1267972,Kanth,29.07,78.63,80.67379999999997,64,1.91,8,http://api.openweathermap.org/data/2.5/weather?id=1267972&APPID=8fc2ca8ae2ccc44f2e41f875f37e5caf
100,64833,Gobolka Banaadir,2.12,45.4,78.24380000000002,90,5.44,88,http://api.openweathermap.org/data/2.5/weather?id=64833&APPID=8fc2ca8ae2ccc44f2e41f875f37e5caf
101,6457006,La Bourboule,45.58,2.75,62.599999999999966,82,1.5,0,http://api.openweathermap.org/data/2.5/weather?id=6457006&APPID=8fc2ca8ae2ccc44f2e41f875f37e5caf
102,1615380,Nong Muang Khai,18.26,100.19,70.95379999999994,99,0.99,92,http://api.openweathermap.org/data/2.5/weather?id=1615380&APPID=8fc2ca8ae2ccc44f2e41f875f37e5caf
103,2975033,Sentzich,49.42,6.26,72.28399999999993,64,2.6,0,http://api.openweathermap.org/data/2.5/weather?id=2975033&APPID=8fc2ca8ae2ccc44f2e41f875f37e5caf
104,2264507,Distrito de Portalegre,39.25,-7.58,61.863800000000026,72,4.09,0,http://api.openweathermap.org/data/2.5/weather?id=2264507&APPID=8fc2ca8ae2ccc44f2e41f875f37e5caf
105,1018725,Bloemfontein,-29.12,26.21,42.799999999999955,81,2.81,8,http://api.openweathermap.org/data/2.5/weather?id=1018725&APPID=8fc2ca8ae2ccc44f2e41f875f37e5caf
106,1817097,Bangdong,26.98,109.19,63.1237999999999,100,1.61,92,http://api.openweathermap.org/data/2.5/weather?id=1817097&APPID=8fc2ca8ae2ccc44f2e41f875f37e5caf
107,4436743,Moss Point,30.41,-88.53,85.42399999999992,70,5.1,75,http://api.openweathermap.org/data/2.5/weather?id=4436743&APPID=8fc2ca8ae2ccc44f2e41f875f37e5caf
108,1998418,Moxi,34.52,108.19,64.39999999999992,72,2.0,12,http://api.openweathermap.org/data/2.5/weather?id=1998418&APPID=8fc2ca8ae2ccc44f2e41f875f37e5caf
109,3024931,Cintheaux,49.05,-0.29,67.99999999999994,77,1.0,0,http://api.openweathermap.org/data/2.5/weather?id=3024931&APPID=8fc2ca8ae2ccc44f2e41f875f37e5caf
110,2658304,Trübbach,47.07,9.48,57.68599999999998,88,2.6,75,http://api.openweathermap.org/data/2.5/weather?id=2658304&APPID=8fc2ca8ae2ccc44f2e41f875f37e5caf
111,2913847,Guggenhausen,47.9,9.45,65.80400000000003,93,3.6,75,http://api.openweathermap.org/data/2.5/weather?id=2913847&APPID=8fc2ca8ae2ccc44f2e41f875f37e5caf
112,1809619,Gubu,28.72,116.8,72.48380000000003,100,0.31,92,http://api.openweathermap.org/data/2.5/weather?id=1809619&APPID=8fc2ca8ae2ccc44f2e41f875f37e5caf
113,3531598,Capulhuac,19.19,-99.47,85.98200000000003,9,4.6,5,http://api.openweathermap.org/data/2.5/weather?id=3531598&APPID=8fc2ca8ae2ccc44f2e41f875f37e5caf
114,6434413,Sainte-Florine,45.4,3.33,62.599999999999966,82,1.5,0,http://api.openweathermap.org/data/2.5/weather?id=6434413&APPID=8fc2ca8ae2ccc44f2e41f875f37e5caf
115,109101,Al Mubarraz,25.41,49.58,94.99999999999994,24,1.5,0,http://api.openweathermap.org/data/2.5/weather?id=109101&APPID=8fc2ca8ae2ccc44f2e41f875f37e5caf
116,2939973,Climbach,50.66,8.82,72.28399999999993,82,1.5,20,http://api.openweathermap.org/data/2.5/weather?id=2939973&APPID=8fc2ca8ae2ccc44f2e41f875f37e5caf
117,1719276,Candelaria,11.29,122.52,73.20379999999994,98,1.06,80,http://api.openweathermap.org/data/2.5/weather?id=1719276&APPID=8fc2ca8ae2ccc44f2e41f875f37e5caf
118,3106202,Velilla de San Antonio,40.37,-3.48,62.16800000000006,93,1.0,75,http://api.openweathermap.org/data/2.5/weather?id=3106202&APPID=8fc2ca8ae2ccc44f2e41f875f37e5caf
119,3082607,Warnice,53.25,14.99,71.59999999999997,53,2.6,20,http://api.openweathermap.org/data/2.5/weather?id=3082607&APPID=8fc2ca8ae2ccc44f2e41f875f37e5caf
120,5246099,Black River,46.56,-92.15,58.136000000000024,100,3.6,90,http://api.openweathermap.org/data/2.5/weather?id=5246099&APPID=8fc2ca8ae2ccc44f2e41f875f37e5caf
121,6550142,Mannstedt,51.13,11.38,70.62799999999999,73,0.5,0,http://api.openweathermap.org/data/2.5/weather?id=6550142&APPID=8fc2ca8ae2ccc44f2e41f875f37e5caf
122,3108189,Telledo,43.02,-5.85,56.19199999999995,100,5.1,75,http://api.openweathermap.org/data/2.5/weather?id=3108189&APPID=8fc2ca8ae2ccc44f2e41f875f37e5caf
123,6548324,Trassenheide,54.1,13.87,67.98380000000003,68,5.11,0,http://api.openweathermap.org/data/2.5/weather?id=6548324&APPID=8fc2ca8ae2ccc44f2e41f875f37e5caf
124,3216381,Popare,44.26,19.88,70.142,63,1.0,0,http://api.openweathermap.org/data/2.5/weather?id=3216381&APPID=8fc2ca8ae2ccc44f2e41f875f37e5caf
125,5143198,Wantagh,40.68,-73.51,71.29400000000004,77,4.6,90,http://api.openweathermap.org/data/2.5/weather?id=5143198&APPID=8fc2ca8ae2ccc44f2e41f875f37e5caf
126,3026013,Chatte,45.14,5.28,62.04199999999997,93,4.1,88,http://api.openweathermap.org/data/2.5/weather?id=3026013&APPID=8fc2ca8ae2ccc44f2e41f875f37e5caf
127,3116641,Modubar de la Emparedada,42.26,-3.66,53.599999999999966,100,2.1,80,http://api.openweathermap.org/data/2.5/weather?id=3116641&APPID=8fc2ca8ae2ccc44f2e41f875f37e5caf
128,1685218,Surigao,9.78,125.49,79.1438,100,1.34,20,http://api.openweathermap.org/data/2.5/weather?id=1685218&APPID=8fc2ca8ae2ccc44f2e41f875f37e5caf
129,2524454,Lanusei,39.88,9.54,69.80000000000001,94,1.46,0,http://api.openweathermap.org/data/2.5/weather?id=2524454&APPID=8fc2ca8ae2ccc44f2e41f875f37e5caf
130,2927850,Fambach,50.73,10.37,71.59999999999997,73,0.5,0,http://api.openweathermap.org/data/2.5/weather?id=2927850&APPID=8fc2ca8ae2ccc44f2e41f875f37e5caf
131,1690591,Sampagar,7.51,124.96,67.80379999999997,96,0.94,64,http://api.openweathermap.org/data/2.5/weather?id=1690591&APPID=8fc2ca8ae2ccc44f2e41f875f37e5caf
132,6413339,Province du Nord,-1.58,29.92,67.99999999999994,68,1.5,40,http://api.openweathermap.org/data/2.5/weather?id=6413339&APPID=8fc2ca8ae2ccc44f2e41f875f37e5caf
133,1863953,Fukura,34.25,134.72,65.35399999999998,100,1.5,75,http://api.openweathermap.org/data/2.5/weather?id=1863953&APPID=8fc2ca8ae2ccc44f2e41f875f37e5caf
134,2857224,Onsdorf,49.65,6.48,72.536,64,2.6,0,http://api.openweathermap.org/data/2.5/weather?id=2857224&APPID=8fc2ca8ae2ccc44f2e41f875f37e5caf
135,4012196,Cuitzeo,20.33,-102.78,89.59999999999997,22,1.5,5,http://api.openweathermap.org/data/2.5/weather?id=4012196&APPID=8fc2ca8ae2ccc44f2e41f875f37e5caf
136,7757659,Fuzihe,30.96,115.02,62.853800000000035,99,2.86,100,http://api.openweathermap.org/data/2.5/weather?id=7757659&APPID=8fc2ca8ae2ccc44f2e41f875f37e5caf
137,2658904,Saanen,46.49,7.26,65.83999999999997,82,2.6,40,http://api.openweathermap.org/data/2.5/weather?id=2658904&APPID=8fc2ca8ae2ccc44f2e41f875f37e5caf
138,7766717,Nambo,-6.49,105.95,67.6237999999999,94,1.44,0,http://api.openweathermap.org/data/2.5/weather?id=7766717&APPID=8fc2ca8ae2ccc44f2e41f875f37e5caf
139,3179441,Castenaso,44.51,11.47,75.19999999999999,78,2.6,75,http://api.openweathermap.org/data/2.5/weather?id=3179441&APPID=8fc2ca8ae2ccc44f2e41f875f37e5caf
140,3122564,Fene,43.45,-8.15,57.037999999999954,82,1.74,75,http://api.openweathermap.org/data/2.5/weather?id=3122564&APPID=8fc2ca8ae2ccc44f2e41f875f37e5caf
141,6157390,Stoney Creek,43.22,-79.77,80.97800000000001,65,5.7,20,http://api.openweathermap.org/data/2.5/weather?id=6157390&APPID=8fc2ca8ae2ccc44f2e41f875f37e5caf
142,2733628,Teixoso,40.31,-7.46,56.6438,88,1.59,44,http://api.openweathermap.org/data/2.5/weather?id=2733628&APPID=8fc2ca8ae2ccc44f2e41f875f37e5caf
143,1793581,Taipingqiao,29.06,111.34,62.40379999999999,100,4.36,92,http://api.openweathermap.org/data/2.5/weather?id=1793581&APPID=8fc2ca8ae2ccc44f2e41f875f37e5caf
144,6322065,São Gonçalo,-22.82,-43.04,75.19999999999999,73,4.6,40,http://api.openweathermap.org/data/2.5/weather?id=6322065&APPID=8fc2ca8ae2ccc44f2e41f875f37e5caf
145,5607807,Snow (historical),46.3,-116.79,57.72200000000004,39,2.1,90,http://api.openweathermap.org/data/2.5/weather?id=5607807&APPID=8fc2ca8ae2ccc44f2e41f875f37e5caf
146,2967253,Ychoux,44.33,-0.95,63.212000000000046,82,3.6,40,http://api.openweathermap.org/data/2.5/weather?id=2967253&APPID=8fc2ca8ae2ccc44f2e41f875f37e5caf
147,2937792,Deutsch Wusterhausen,52.3,13.58,69.07999999999998,77,1.5,0,http://api.openweathermap.org/data/2.5/weather?id=2937792&APPID=8fc2ca8ae2ccc44f2e41f875f37e5caf
148,6437051,Jouy-en-Argonne,49.13,5.22,66.19999999999999,72,1.5,64,http://api.openweathermap.org/data/2.5/weather?id=6437051&APPID=8fc2ca8ae2ccc44f2e41f875f37e5caf
149,7350511,Darunban,-8.19,113.26,72.57379999999995,100,1.71,0,http://api.openweathermap.org/data/2.5/weather?id=7350511&APPID=8fc2ca8ae2ccc44f2e41f875f37e5caf
150,3110931,Samper del Salz,41.23,-0.83,62.599999999999966,88,2.1,40,http://api.openweathermap.org/data/2.5/weather?id=3110931&APPID=8fc2ca8ae2ccc44f2e41f875f37e5caf
151,6555427,Neidlingen,48.58,9.56,71.51000000000005,56,2.1,0,http://api.openweathermap.org/data/2.5/weather?id=6555427&APPID=8fc2ca8ae2ccc44f2e41f875f37e5caf
152,571476,Bryansk,53.29,34.38,63.48380000000003,42,3.99,0,http://api.openweathermap.org/data/2.5/weather?id=571476&APPID=8fc2ca8ae2ccc44f2e41f875f37e5caf
153,5143396,Watertown,43.97,-75.91,86.36000000000007,43,2.6,20,http://api.openweathermap.org/data/2.5/weather?id=5143396&APPID=8fc2ca8ae2ccc44f2e41f875f37e5caf
154,3033813,Belberaud,43.51,1.57,61.61000000000007,88,0.5,68,http://api.openweathermap.org/data/2.5/weather?id=3033813&APPID=8fc2ca8ae2ccc44f2e41f875f37e5caf
155,6553385,Fiersbach,50.7,7.5,72.94999999999999,69,1.5,0,http://api.openweathermap.org/data/2.5/weather?id=6553385&APPID=8fc2ca8ae2ccc44f2e41f875f37e5caf
156,6550178,Oberstadt,50.55,10.6,71.59999999999997,73,0.5,0,http://api.openweathermap.org/data/2.5/weather?id=6550178&APPID=8fc2ca8ae2ccc44f2e41f875f37e5caf
157,5121382,Houghton,42.42,-78.16,83.80400000000003,54,6.7,75,http://api.openweathermap.org/data/2.5/weather?id=5121382&APPID=8fc2ca8ae2ccc44f2e41f875f37e5caf
158,1255121,Taliparamba,12.05,75.35,72.21379999999994,98,0.99,92,http://api.openweathermap.org/data/2.5/weather?id=1255121&APPID=8fc2ca8ae2ccc44f2e41f875f37e5caf
159,3064826,Studena,49.19,15.29,67.99999999999994,60,3.1,0,http://api.openweathermap.org/data/2.5/weather?id=3064826&APPID=8fc2ca8ae2ccc44f2e41f875f37e5caf
160,4538869,Holdenville,35.08,-96.4,91.39999999999992,52,2.6,1,http://api.openweathermap.org/data/2.5/weather?id=4538869&APPID=8fc2ca8ae2ccc44f2e41f875f37e5caf
161,1275466,Bishnah,32.62,74.87,87.80000000000001,35,2.1,0,http://api.openweathermap.org/data/2.5/weather?id=1275466&APPID=8fc2ca8ae2ccc44f2e41f875f37e5caf
162,6361306,la Galera,40.7,0.45,58.98380000000003,100,1.51,12,http://api.openweathermap.org/data/2.5/weather?id=6361306&APPID=8fc2ca8ae2ccc44f2e41f875f37e5caf
163,2028577,Tsoohor,43.31,104.07,47.10379999999998,37,2.56,0,http://api.openweathermap.org/data/2.5/weather?id=2028577&APPID=8fc2ca8ae2ccc44f2e41f875f37e5caf
164,5592973,Filer,42.57,-114.61,61.05200000000008,82,4.6,75,http://api.openweathermap.org/data/2.5/weather?id=5592973&APPID=8fc2ca8ae2ccc44f2e41f875f37e5caf
165,3464432,Doutor Pedrinho,-26.71,-49.48,63.75380000000001,83,1.61,0,http://api.openweathermap.org/data/2.5/weather?id=3464432&APPID=8fc2ca8ae2ccc44f2e41f875f37e5caf
166,2329981,Mokwa,9.28,5.05,82.0238,71,4.21,0,http://api.openweathermap.org/data/2.5/weather?id=2329981&APPID=8fc2ca8ae2ccc44f2e41f875f37e5caf
167,6294605,Hegnau / Sunnebueel-Eich,47.39,8.68,65.74999999999994,93,3.6,75,http://api.openweathermap.org/data/2.5/weather?id=6294605&APPID=8fc2ca8ae2ccc44f2e41f875f37e5caf
168,6548319,Sauzin,54.03,13.78,67.98380000000003,68,5.11,0,http://api.openweathermap.org/data/2.5/weather?id=6548319&APPID=8fc2ca8ae2ccc44f2e41f875f37e5caf
169,1519516,Sastobe,42.55,70.0,55.39999999999992,47,2.0,0,http://api.openweathermap.org/data/2.5/weather?id=1519516&APPID=8fc2ca8ae2ccc44f2e41f875f37e5caf
170,3174130,Maltignano,42.7,13.05,67.99999999999994,88,1.0,75,http://api.openweathermap.org/data/2.5/weather?id=3174130&APPID=8fc2ca8ae2ccc44f2e41f875f37e5caf
171,1630171,Ramban Wetan,-7.78,114.03,67.53379999999999,97,1.56,0,http://api.openweathermap.org/data/2.5/weather?id=1630171&APPID=8fc2ca8ae2ccc44f2e41f875f37e5caf
172,6612533,Ouzouer-le-Marché,47.92,1.53,61.448000000000036,93,2.1,68,http://api.openweathermap.org/data/2.5/weather?id=6612533&APPID=8fc2ca8ae2ccc44f2e41f875f37e5caf
173,3574081,Morvant,10.65,-61.47,84.19999999999999,66,8.2,20,http://api.openweathermap.org/data/2.5/weather?id=3574081&APPID=8fc2ca8ae2ccc44f2e41f875f37e5caf
174,1927964,Cheping,29.15,110.0,61.05379999999997,100,0.94,92,http://api.openweathermap.org/data/2.5/weather?id=1927964&APPID=8fc2ca8ae2ccc44f2e41f875f37e5caf
175,2654818,Brecon,51.95,-3.39,59.63000000000005,93,4.1,75,http://api.openweathermap.org/data/2.5/weather?id=2654818&APPID=8fc2ca8ae2ccc44f2e41f875f37e5caf
176,5375835,Muroc (historical),34.92,-117.87,84.54199999999997,27,6.7,1,http://api.openweathermap.org/data/2.5/weather?id=5375835&APPID=8fc2ca8ae2ccc44f2e41f875f37e5caf
177,3863814,Buena Esperanza,-34.76,-65.25,51.06379999999996,63,2.19,92,http://api.openweathermap.org/data/2.5/weather?id=3863814&APPID=8fc2ca8ae2ccc44f2e41f875f37e5caf
178,3194199,Odzak,45.01,18.33,68.91800000000006,72,3.1,0,http://api.openweathermap.org/data/2.5/weather?id=3194199&APPID=8fc2ca8ae2ccc44f2e41f875f37e5caf
179,2659960,Le Locle,47.06,6.75,66.38000000000005,82,1.0,75,http://api.openweathermap.org/data/2.5/weather?id=2659960&APPID=8fc2ca8ae2ccc44f2e41f875f37e5caf
180,3116529,Monasterio de Vega,42.23,-5.18,56.21000000000009,76,4.6,20,http://api.openweathermap.org/data/2.5/weather?id=3116529&APPID=8fc2ca8ae2ccc44f2e41f875f37e5caf
181,2518794,Dos Hermanas,37.28,-5.92,67.92800000000005,52,5.1,0,http://api.openweathermap.org/data/2.5/weather?id=2518794&APPID=8fc2ca8ae2ccc44f2e41f875f37e5caf
182,6535372,Sordio,45.34,9.36,69.656,78,0.5,75,http://api.openweathermap.org/data/2.5/weather?id=6535372&APPID=8fc2ca8ae2ccc44f2e41f875f37e5caf
183,756577,Turobin,50.82,22.74,65.6438,67,1.24,0,http://api.openweathermap.org/data/2.5/weather?id=756577&APPID=8fc2ca8ae2ccc44f2e41f875f37e5caf
184,524736,Mozdok,43.75,44.69,55.38380000000001,85,2.19,36,http://api.openweathermap.org/data/2.5/weather?id=524736&APPID=8fc2ca8ae2ccc44f2e41f875f37e5caf
185,2012573,Zharikovo,44.58,131.73,55.023799999999994,96,2.39,20,http://api.openweathermap.org/data/2.5/weather?id=2012573&APPID=8fc2ca8ae2ccc44f2e41f875f37e5caf
186,4359760,Kensington,39.03,-77.08,79.37600000000003,69,6.2,75,http://api.openweathermap.org/data/2.5/weather?id=4359760&APPID=8fc2ca8ae2ccc44f2e41f875f37e5caf
187,7874524,Morro do Geraldo,-27.6,-48.59,75.19999999999999,69,3.6,20,http://api.openweathermap.org/data/2.5/weather?id=7874524&APPID=8fc2ca8ae2ccc44f2e41f875f37e5caf
188,6554502,Schleid,50.07,6.48,71.59999999999997,56,2.1,24,http://api.openweathermap.org/data/2.5/weather?id=6554502&APPID=8fc2ca8ae2ccc44f2e41f875f37e5caf
189,6104820,Pinawa,50.15,-95.88,69.69380000000007,100,1.06,48,http://api.openweathermap.org/data/2.5/weather?id=6104820&APPID=8fc2ca8ae2ccc44f2e41f875f37e5caf
190,6444922,Réalmont,43.78,2.2,61.71800000000002,93,1.0,24,http://api.openweathermap.org/data/2.5/weather?id=6444922&APPID=8fc2ca8ae2ccc44f2e41f875f37e5caf
191,2514232,Malpaís,28.35,-16.37,63.71599999999995,93,5.7,75,http://api.openweathermap.org/data/2.5/weather?id=2514232&APPID=8fc2ca8ae2ccc44f2e41f875f37e5caf
192,1916231,Ebu,22.83,115.0,78.78379999999999,91,1.44,56,http://api.openweathermap.org/data/2.5/weather?id=1916231&APPID=8fc2ca8ae2ccc44f2e41f875f37e5caf
193,6357212,Carlota (La),37.68,-4.93,71.59999999999997,46,3.1,12,http://api.openweathermap.org/data/2.5/weather?id=6357212&APPID=8fc2ca8ae2ccc44f2e41f875f37e5caf
194,1697942,Natalungan,7.53,125.02,67.80379999999997,96,0.94,64,http://api.openweathermap.org/data/2.5/weather?id=1697942&APPID=8fc2ca8ae2ccc44f2e41f875f37e5caf
195,2845541,Rohrsen,52.23,9.39,74.28199999999998,69,0.81,20,http://api.openweathermap.org/data/2.5/weather?id=2845541&APPID=8fc2ca8ae2ccc44f2e41f875f37e5caf
196,3615065,Armenta,15.5,-88.05,94.17199999999997,44,2.1,0,http://api.openweathermap.org/data/2.5/weather?id=3615065&APPID=8fc2ca8ae2ccc44f2e41f875f37e5caf
197,7530942,Słupsk,54.46,17.03,66.2738,63,7.64,0,http://api.openweathermap.org/data/2.5/weather?id=7530942&APPID=8fc2ca8ae2ccc44f2e41f875f37e5caf
198,315401,Ermenek,36.64,32.89,51.24380000000002,91,0.84,20,http://api.openweathermap.org/data/2.5/weather?id=315401&APPID=8fc2ca8ae2ccc44f2e41f875f37e5caf
199,1924778,Ducheng,28.23,115.49,71.58380000000005,98,2.24,80,http://api.openweathermap.org/data/2.5/weather?id=1924778&APPID=8fc2ca8ae2ccc44f2e41f875f37e5caf
200,4994483,Grass Lake,42.25,-84.21,84.19999999999999,69,8.7,75,http://api.openweathermap.org/data/2.5/weather?id=4994483&APPID=8fc2ca8ae2ccc44f2e41f875f37e5caf
201,2989382,Orgeres,48.0,-1.67,64.39999999999992,77,2.6,0,http://api.openweathermap.org/data/2.5/weather?id=2989382&APPID=8fc2ca8ae2ccc44f2e41f875f37e5caf
202,3220782,Main-Tauber-Kreis,49.56,9.72,71.59999999999997,60,2.1,75,http://api.openweathermap.org/data/2.5/weather?id=3220782&APPID=8fc2ca8ae2ccc44f2e41f875f37e5caf
203,4991823,Edgemont Park,42.75,-84.59,84.39799999999997,55,5.1,40,http://api.openweathermap.org/data/2.5/weather?id=4991823&APPID=8fc2ca8ae2ccc44f2e41f875f37e5caf
204,8046023,Cimamut,-7.31,108.26,65.3737999999999,99,0.59,76,http://api.openweathermap.org/data/2.5/weather?id=8046023&APPID=8fc2ca8ae2ccc44f2e41f875f37e5caf
205,6554280,Welkenbach,50.63,7.73,72.78799999999995,69,1.5,0,http://api.openweathermap.org/data/2.5/weather?id=6554280&APPID=8fc2ca8ae2ccc44f2e41f875f37e5caf
206,792680,Belgrade,44.8,20.47,73.36399999999998,44,5.1,0,http://api.openweathermap.org/data/2.5/weather?id=792680&APPID=8fc2ca8ae2ccc44f2e41f875f37e5caf
207,6362419,Portugalete,43.32,-3.02,60.11599999999993,82,0.5,75,http://api.openweathermap.org/data/2.5/weather?id=6362419&APPID=8fc2ca8ae2ccc44f2e41f875f37e5caf
208,7767455,Daping,24.65,112.17,74.10380000000004,89,0.89,32,http://api.openweathermap.org/data/2.5/weather?id=7767455&APPID=8fc2ca8ae2ccc44f2e41f875f37e5caf
209,2099488,Biliau Mission,-5.58,146.33,79.41379999999998,100,1.11,68,http://api.openweathermap.org/data/2.5/weather?id=2099488&APPID=8fc2ca8ae2ccc44f2e41f875f37e5caf
210,3995847,Mina,26.0,-100.53,89.27600000000001,61,5.1,40,http://api.openweathermap.org/data/2.5/weather?id=3995847&APPID=8fc2ca8ae2ccc44f2e41f875f37e5caf
211,3627576,Santa Apolonia,9.47,-71.01,88.7738,68,1.79,12,http://api.openweathermap.org/data/2.5/weather?id=3627576&APPID=8fc2ca8ae2ccc44f2e41f875f37e5caf
212,388692,‘Ashub,26.17,56.23,84.19999999999999,54,2.6,0,http://api.openweathermap.org/data/2.5/weather?id=388692&APPID=8fc2ca8ae2ccc44f2e41f875f37e5caf
213,1805435,Jinhe,22.77,103.25,66.99380000000002,97,0.61,92,http://api.openweathermap.org/data/2.5/weather?id=1805435&APPID=8fc2ca8ae2ccc44f2e41f875f37e5caf
214,3100881,Dabie,52.01,15.15,75.19999999999999,50,3.1,0,http://api.openweathermap.org/data/2.5/weather?id=3100881&APPID=8fc2ca8ae2ccc44f2e41f875f37e5caf
215,108512,Arar,30.98,41.04,87.80000000000001,38,5.7,0,http://api.openweathermap.org/data/2.5/weather?id=108512&APPID=8fc2ca8ae2ccc44f2e41f875f37e5caf
216,6554494,Rodershausen,49.98,6.2,72.84199999999993,64,2.6,0,http://api.openweathermap.org/data/2.5/weather?id=6554494&APPID=8fc2ca8ae2ccc44f2e41f875f37e5caf
217,701500,Mayorovka,51.48,33.27,68.5238,55,3.24,0,http://api.openweathermap.org/data/2.5/weather?id=701500&APPID=8fc2ca8ae2ccc44f2e41f875f37e5caf
218,1706801,Leyte,11.37,124.49,83.3737999999999,100,4.36,44,http://api.openweathermap.org/data/2.5/weather?id=1706801&APPID=8fc2ca8ae2ccc44f2e41f875f37e5caf
219,6358931,Sarroca de Bellera,42.41,0.9,46.74380000000002,84,0.69,88,http://api.openweathermap.org/data/2.5/weather?id=6358931&APPID=8fc2ca8ae2ccc44f2e41f875f37e5caf
220,2961171,Togher,53.84,-6.3,61.73600000000005,72,3.6,75,http://api.openweathermap.org/data/2.5/weather?id=2961171&APPID=8fc2ca8ae2ccc44f2e41f875f37e5caf
221,1812625,Dongcun,26.36,115.55,72.30379999999997,97,1.11,56,http://api.openweathermap.org/data/2.5/weather?id=1812625&APPID=8fc2ca8ae2ccc44f2e41f875f37e5caf
222,3107348,Uceda,40.84,-3.46,62.20400000000001,93,1.0,75,http://api.openweathermap.org/data/2.5/weather?id=3107348&APPID=8fc2ca8ae2ccc44f2e41f875f37e5caf
223,3205518,Burgrain,47.52,11.1,71.56400000000002,38,6.7,75,http://api.openweathermap.org/data/2.5/weather?id=3205518&APPID=8fc2ca8ae2ccc44f2e41f875f37e5caf
224,2642557,Midsomer Norton,51.29,-2.49,61.358000000000004,100,3.1,90,http://api.openweathermap.org/data/2.5/weather?id=2642557&APPID=8fc2ca8ae2ccc44f2e41f875f37e5caf
225,3406866,Bacurituba,-2.71,-44.74,75.19999999999999,100,4.1,75,http://api.openweathermap.org/data/2.5/weather?id=3406866&APPID=8fc2ca8ae2ccc44f2e41f875f37e5caf
226,1655087,Muang Vangviang,18.93,102.45,68.5238,95,0.36,92,http://api.openweathermap.org/data/2.5/weather?id=1655087&APPID=8fc2ca8ae2ccc44f2e41f875f37e5caf
227,256075,Palaio Faliro,37.92,23.71,73.39999999999992,43,5.7,20,http://api.openweathermap.org/data/2.5/weather?id=256075&APPID=8fc2ca8ae2ccc44f2e41f875f37e5caf
228,6138628,Saint-Léonard-d'Aston,46.1,-72.37,78.24380000000002,44,3.49,0,http://api.openweathermap.org/data/2.5/weather?id=6138628&APPID=8fc2ca8ae2ccc44f2e41f875f37e5caf
229,5881688,Fort St. James,54.46,-124.26,51.33380000000005,44,0.34,64,http://api.openweathermap.org/data/2.5/weather?id=5881688&APPID=8fc2ca8ae2ccc44f2e41f875f37e5caf
230,3863887,Bowen,-35.0,-67.51,52.1438,43,2.26,76,http://api.openweathermap.org/data/2.5/weather?id=3863887&APPID=8fc2ca8ae2ccc44f2e41f875f37e5caf
231,3126997,Calig,40.46,0.36,66.18380000000008,100,2.61,12,http://api.openweathermap.org/data/2.5/weather?id=3126997&APPID=8fc2ca8ae2ccc44f2e41f875f37e5caf
232,668656,Rosia,45.82,24.32,62.599999999999966,72,0.5,0,http://api.openweathermap.org/data/2.5/weather?id=668656&APPID=8fc2ca8ae2ccc44f2e41f875f37e5caf
233,6555240,Großniedesheim,49.58,8.31,76.91000000000003,44,2.6,0,http://api.openweathermap.org/data/2.5/weather?id=6555240&APPID=8fc2ca8ae2ccc44f2e41f875f37e5caf
234,3029814,Brucourt,49.25,-0.11,67.99999999999994,72,1.84,0,http://api.openweathermap.org/data/2.5/weather?id=3029814&APPID=8fc2ca8ae2ccc44f2e41f875f37e5caf
235,783845,Zletovo,41.99,22.24,67.99999999999994,68,1.01,0,http://api.openweathermap.org/data/2.5/weather?id=783845&APPID=8fc2ca8ae2ccc44f2e41f875f37e5caf
236,4033779,Punaauia,-17.63,-149.6,82.39999999999992,65,1.5,20,http://api.openweathermap.org/data/2.5/weather?id=4033779&APPID=8fc2ca8ae2ccc44f2e41f875f37e5caf
237,1693848,Pilar,9.87,126.1,81.75380000000001,100,1.94,76,http://api.openweathermap.org/data/2.5/weather?id=1693848&APPID=8fc2ca8ae2ccc44f2e41f875f37e5caf
238,1696512,Pagsanghan,11.97,124.72,76.8938,100,1.71,12,http://api.openweathermap.org/data/2.5/weather?id=1696512&APPID=8fc2ca8ae2ccc44f2e41f875f37e5caf
239,5140538,Tarrytown,41.08,-73.86,74.53399999999993,77,4.6,90,http://api.openweathermap.org/data/2.5/weather?id=5140538&APPID=8fc2ca8ae2ccc44f2e41f875f37e5caf
240,2030841,Havirga,45.67,113.08,49.08380000000005,53,3.16,0,http://api.openweathermap.org/data/2.5/weather?id=2030841&APPID=8fc2ca8ae2ccc44f2e41f875f37e5caf
241,1691537,Province of Romblon,12.5,122.25,83.3737999999999,100,3.51,56,http://api.openweathermap.org/data/2.5/weather?id=1691537&APPID=8fc2ca8ae2ccc44f2e41f875f37e5caf
242,1803679,Lijiahe,29.59,109.46,60.8737999999999,100,0.36,92,http://api.openweathermap.org/data/2.5/weather?id=1803679&APPID=8fc2ca8ae2ccc44f2e41f875f37e5caf
243,2756774,Doenrade,50.97,5.91,75.03799999999995,69,1.0,0,http://api.openweathermap.org/data/2.5/weather?id=2756774&APPID=8fc2ca8ae2ccc44f2e41f875f37e5caf
244,3016409,Gelles,45.77,2.76,62.599999999999966,82,1.5,0,http://api.openweathermap.org/data/2.5/weather?id=3016409&APPID=8fc2ca8ae2ccc44f2e41f875f37e5caf
245,2815035,Waldfeucht,51.07,5.99,74.51600000000002,69,1.0,0,http://api.openweathermap.org/data/2.5/weather?id=2815035&APPID=8fc2ca8ae2ccc44f2e41f875f37e5caf
246,6535632,Casapesenna,40.99,14.14,76.22600000000006,47,1.0,20,http://api.openweathermap.org/data/2.5/weather?id=6535632&APPID=8fc2ca8ae2ccc44f2e41f875f37e5caf
247,6553876,Bergenhausen,50.02,7.57,73.54400000000004,64,1.0,0,http://api.openweathermap.org/data/2.5/weather?id=6553876&APPID=8fc2ca8ae2ccc44f2e41f875f37e5caf
248,6059915,Lonira,54.08,-115.44,49.99999999999994,71,1.5,90,http://api.openweathermap.org/data/2.5/weather?id=6059915&APPID=8fc2ca8ae2ccc44f2e41f875f37e5caf
249,2514650,Los Llanos del Mayor,37.23,-1.92,66.19999999999999,77,3.6,0,http://api.openweathermap.org/data/2.5/weather?id=2514650&APPID=8fc2ca8ae2ccc44f2e41f875f37e5caf
250,3009313,La Fouillouse,45.5,4.31,62.04199999999997,82,1.0,0,http://api.openweathermap.org/data/2.5/weather?id=3009313&APPID=8fc2ca8ae2ccc44f2e41f875f37e5caf
251,7373178,Suochi,33.65,105.51,50.34379999999999,67,0.99,80,http://api.openweathermap.org/data/2.5/weather?id=7373178&APPID=8fc2ca8ae2ccc44f2e41f875f37e5caf
252,2643674,Long Itchington,52.28,-1.39,60.00799999999998,100,1.5,90,http://api.openweathermap.org/data/2.5/weather?id=2643674&APPID=8fc2ca8ae2ccc44f2e41f875f37e5caf
253,7848734,Pagadungan,-7.36,106.95,70.95379999999994,96,1.39,24,http://api.openweathermap.org/data/2.5/weather?id=7848734&APPID=8fc2ca8ae2ccc44f2e41f875f37e5caf
254,3110581,San Ildefonso,40.9,-4.01,61.37600000000003,93,1.0,75,http://api.openweathermap.org/data/2.5/weather?id=3110581&APPID=8fc2ca8ae2ccc44f2e41f875f37e5caf
255,508872,Ploskovo,58.98,42.38,45.03380000000004,66,7.74,36,http://api.openweathermap.org/data/2.5/weather?id=508872&APPID=8fc2ca8ae2ccc44f2e41f875f37e5caf
256,7020273,Tymofiyivka,45.66,34.36,56.3737999999999,72,1.44,0,http://api.openweathermap.org/data/2.5/weather?id=7020273&APPID=8fc2ca8ae2ccc44f2e41f875f37e5caf
257,2735080,Rio Torto,40.51,-7.65,52.50380000000001,93,1.39,20,http://api.openweathermap.org/data/2.5/weather?id=2735080&APPID=8fc2ca8ae2ccc44f2e41f875f37e5caf
258,3063561,Usov,49.8,17.01,64.20379999999994,67,2.81,44,http://api.openweathermap.org/data/2.5/weather?id=3063561&APPID=8fc2ca8ae2ccc44f2e41f875f37e5caf
259,2833866,Seefeld,48.03,11.21,69.22399999999999,64,3.1,0,http://api.openweathermap.org/data/2.5/weather?id=2833866&APPID=8fc2ca8ae2ccc44f2e41f875f37e5caf
260,3117870,Lozoya,40.95,-3.79,61.37600000000003,93,1.0,75,http://api.openweathermap.org/data/2.5/weather?id=3117870&APPID=8fc2ca8ae2ccc44f2e41f875f37e5caf
261,2945215,Brandscheid,50.57,7.92,75.344,69,1.5,0,http://api.openweathermap.org/data/2.5/weather?id=2945215&APPID=8fc2ca8ae2ccc44f2e41f875f37e5caf
262,2914279,Grunenbach,47.62,10.02,66.23600000000005,88,2.6,75,http://api.openweathermap.org/data/2.5/weather?id=2914279&APPID=8fc2ca8ae2ccc44f2e41f875f37e5caf
263,2517791,Facinas,36.14,-5.7,65.62399999999997,77,3.1,40,http://api.openweathermap.org/data/2.5/weather?id=2517791&APPID=8fc2ca8ae2ccc44f2e41f875f37e5caf
264,3042289,Saint Anne,49.72,-2.2,62.636000000000024,87,2.1,75,http://api.openweathermap.org/data/2.5/weather?id=3042289&APPID=8fc2ca8ae2ccc44f2e41f875f37e5caf
265,8064111,Emblegan,-7.13,108.42,64.47379999999993,97,0.79,0,http://api.openweathermap.org/data/2.5/weather?id=8064111&APPID=8fc2ca8ae2ccc44f2e41f875f37e5caf
266,6557006,Wonfurt,50.02,10.47,71.59999999999997,60,1.51,1,http://api.openweathermap.org/data/2.5/weather?id=6557006&APPID=8fc2ca8ae2ccc44f2e41f875f37e5caf
267,6544075,Port dAlcudia,39.84,3.13,67.99999999999994,82,3.6,40,http://api.openweathermap.org/data/2.5/weather?id=6544075&APPID=8fc2ca8ae2ccc44f2e41f875f37e5caf
268,716860,Ofeherto,47.93,22.05,69.88999999999993,68,1.0,24,http://api.openweathermap.org/data/2.5/weather?id=716860&APPID=8fc2ca8ae2ccc44f2e41f875f37e5caf
269,2921123,Gerhardsbrunn,49.35,7.52,72.08600000000007,53,3.1,75,http://api.openweathermap.org/data/2.5/weather?id=2921123&APPID=8fc2ca8ae2ccc44f2e41f875f37e5caf
270,7371349,Qiecha,37.0,99.6,35.85379999999998,84,2.34,48,http://api.openweathermap.org/data/2.5/weather?id=7371349&APPID=8fc2ca8ae2ccc44f2e41f875f37e5caf
271,7545196,Ujung,-8.21,114.38,74.82379999999995,95,2.16,0,http://api.openweathermap.org/data/2.5/weather?id=7545196&APPID=8fc2ca8ae2ccc44f2e41f875f37e5caf
272,5025264,Edina,44.89,-93.35,70.48399999999998,83,2.64,90,http://api.openweathermap.org/data/2.5/weather?id=5025264&APPID=8fc2ca8ae2ccc44f2e41f875f37e5caf
273,6052332,Lenore,49.96,-100.75,64.39999999999992,88,6.2,90,http://api.openweathermap.org/data/2.5/weather?id=6052332&APPID=8fc2ca8ae2ccc44f2e41f875f37e5caf
274,182701,Nyeri,-0.42,36.95,60.603800000000035,97,0.71,80,http://api.openweathermap.org/data/2.5/weather?id=182701&APPID=8fc2ca8ae2ccc44f2e41f875f37e5caf
275,740581,Pinarbasi,41.6,33.11,53.67379999999997,90,1.11,88,http://api.openweathermap.org/data/2.5/weather?id=740581&APPID=8fc2ca8ae2ccc44f2e41f875f37e5caf
276,2870795,Mittelbiberach,48.08,9.75,65.67800000000005,60,2.1,75,http://api.openweathermap.org/data/2.5/weather?id=2870795&APPID=8fc2ca8ae2ccc44f2e41f875f37e5caf
277,3217900,Kampor,44.77,14.72,71.47399999999999,69,2.1,20,http://api.openweathermap.org/data/2.5/weather?id=3217900&APPID=8fc2ca8ae2ccc44f2e41f875f37e5caf
278,3123160,Endrinal,40.59,-5.8,58.99999999999994,72,5.7,20,http://api.openweathermap.org/data/2.5/weather?id=3123160&APPID=8fc2ca8ae2ccc44f2e41f875f37e5caf
279,676713,Grinties,47.05,25.87,51.15379999999999,76,0.69,0,http://api.openweathermap.org/data/2.5/weather?id=676713&APPID=8fc2ca8ae2ccc44f2e41f875f37e5caf
280,1553488,Datan,29.95,117.75,64.65379999999999,98,2.46,100,http://api.openweathermap.org/data/2.5/weather?id=1553488&APPID=8fc2ca8ae2ccc44f2e41f875f37e5caf
281,257859,Malia,35.28,25.47,71.59999999999997,78,4.1,20,http://api.openweathermap.org/data/2.5/weather?id=257859&APPID=8fc2ca8ae2ccc44f2e41f875f37e5caf
282,174991,Ararat,39.83,44.7,64.39999999999992,72,4.1,40,http://api.openweathermap.org/data/2.5/weather?id=174991&APPID=8fc2ca8ae2ccc44f2e41f875f37e5caf
283,7260320,Zephyrhills West,28.23,-82.21,77.91800000000006,88,2.6,75,http://api.openweathermap.org/data/2.5/weather?id=7260320&APPID=8fc2ca8ae2ccc44f2e41f875f37e5caf
284,4833505,East Norwalk,41.11,-73.4,73.39999999999992,60,5.7,20,http://api.openweathermap.org/data/2.5/weather?id=4833505&APPID=8fc2ca8ae2ccc44f2e41f875f37e5caf
285,2924939,Fretter,51.2,8.05,73.95799999999991,60,2.6,0,http://api.openweathermap.org/data/2.5/weather?id=2924939&APPID=8fc2ca8ae2ccc44f2e41f875f37e5caf
286,2640651,Pannal,53.96,-1.54,55.04000000000002,93,1.0,90,http://api.openweathermap.org/data/2.5/weather?id=2640651&APPID=8fc2ca8ae2ccc44f2e41f875f37e5caf
287,3394745,Mocajuba,-2.58,-49.51,82.65379999999999,73,2.46,44,http://api.openweathermap.org/data/2.5/weather?id=3394745&APPID=8fc2ca8ae2ccc44f2e41f875f37e5caf
288,2981791,Saint-Andiol,43.83,4.94,66.81200000000007,93,1.5,76,http://api.openweathermap.org/data/2.5/weather?id=2981791&APPID=8fc2ca8ae2ccc44f2e41f875f37e5caf
289,2971157,Vaires-sur-Marne,48.88,2.64,70.82600000000008,64,2.6,80,http://api.openweathermap.org/data/2.5/weather?id=2971157&APPID=8fc2ca8ae2ccc44f2e41f875f37e5caf
290,729792,Obshtina Kŭrdzhali,41.68,25.43,62.58380000000005,50,2.61,0,http://api.openweathermap.org/data/2.5/weather?id=729792&APPID=8fc2ca8ae2ccc44f2e41f875f37e5caf
291,873882,Torfyanoye,60.08,30.32,60.80000000000001,44,2.0,0,http://api.openweathermap.org/data/2.5/weather?id=873882&APPID=8fc2ca8ae2ccc44f2e41f875f37e5caf
292,3610278,El Socorro,14.63,-87.92,89.59999999999997,62,5.7,1,http://api.openweathermap.org/data/2.5/weather?id=3610278&APPID=8fc2ca8ae2ccc44f2e41f875f37e5caf
293,3110530,San Juan del Rebollar,41.75,-6.35,51.51379999999995,83,1.49,8,http://api.openweathermap.org/data/2.5/weather?id=3110530&APPID=8fc2ca8ae2ccc44f2e41f875f37e5caf
294,4898878,LaSalle County,41.27,-88.88,85.42399999999992,70,2.1,40,http://api.openweathermap.org/data/2.5/weather?id=4898878&APPID=8fc2ca8ae2ccc44f2e41f875f37e5caf
295,2865917,Neudorf-Platendorf,52.54,10.6,70.75399999999996,82,3.1,75,http://api.openweathermap.org/data/2.5/weather?id=2865917&APPID=8fc2ca8ae2ccc44f2e41f875f37e5caf
296,3564175,Provincia de Ciego de Ávila,21.9,-78.6,85.99999999999994,70,5.1,40,http://api.openweathermap.org/data/2.5/weather?id=3564175&APPID=8fc2ca8ae2ccc44f2e41f875f37e5caf
297,2641637,Newhaven,50.8,0.06,63.44599999999997,77,1.0,20,http://api.openweathermap.org/data/2.5/weather?id=2641637&APPID=8fc2ca8ae2ccc44f2e41f875f37e5caf
298,7298226,Bradley,53.53,-0.12,57.632000000000005,93,1.04,90,http://api.openweathermap.org/data/2.5/weather?id=7298226&APPID=8fc2ca8ae2ccc44f2e41f875f37e5caf
299,2980059,Saint-Fulgent,46.85,-1.18,63.55400000000003,82,2.1,20,http://api.openweathermap.org/data/2.5/weather?id=2980059&APPID=8fc2ca8ae2ccc44f2e41f875f37e5caf
300,3467754,Campo Grande,-10.23,-36.5,75.45379999999994,88,5.54,92,http://api.openweathermap.org/data/2.5/weather?id=3467754&APPID=8fc2ca8ae2ccc44f2e41f875f37e5caf
301,6446200,Saint-Germain-lès-Arpajon,48.6,2.25,70.844,68,2.1,75,http://api.openweathermap.org/data/2.5/weather?id=6446200&APPID=8fc2ca8ae2ccc44f2e41f875f37e5caf
302,2661641,Bagnes,46.08,7.22,51.04400000000004,82,2.6,40,http://api.openweathermap.org/data/2.5/weather?id=2661641&APPID=8fc2ca8ae2ccc44f2e41f875f37e5caf
303,3078997,Boretice,48.91,16.85,67.99999999999994,68,3.1,0,http://api.openweathermap.org/data/2.5/weather?id=3078997&APPID=8fc2ca8ae2ccc44f2e41f875f37e5caf
304,3152868,Herøya,59.12,9.63,76.99999999999994,47,0.5,0,http://api.openweathermap.org/data/2.5/weather?id=3152868&APPID=8fc2ca8ae2ccc44f2e41f875f37e5caf
305,4178552,Winter Haven,28.02,-81.73,74.084,94,3.6,90,http://api.openweathermap.org/data/2.5/weather?id=4178552&APPID=8fc2ca8ae2ccc44f2e41f875f37e5caf
306,1272207,Dundwaraganj,27.73,78.95,85.44380000000007,49,3.54,36,http://api.openweathermap.org/data/2.5/weather?id=1272207&APPID=8fc2ca8ae2ccc44f2e41f875f37e5caf
307,6429436,Mensignac,45.22,0.57,65.40799999999996,93,2.6,92,http://api.openweathermap.org/data/2.5/weather?id=6429436&APPID=8fc2ca8ae2ccc44f2e41f875f37e5caf
308,158006,Kibaya,-5.3,36.57,64.56379999999996,61,2.81,64,http://api.openweathermap.org/data/2.5/weather?id=158006&APPID=8fc2ca8ae2ccc44f2e41f875f37e5caf
309,1076152,Andimaka,-20.27,44.32,67.44380000000007,100,2.24,0,http://api.openweathermap.org/data/2.5/weather?id=1076152&APPID=8fc2ca8ae2ccc44f2e41f875f37e5caf
310,2061769,Seaford,-35.18,138.47,51.799999999999955,87,3.1,75,http://api.openweathermap.org/data/2.5/weather?id=2061769&APPID=8fc2ca8ae2ccc44f2e41f875f37e5caf
311,1925311,Xiangshan,28.95,115.98,69.15379999999999,99,4.04,92,http://api.openweathermap.org/data/2.5/weather?id=1925311&APPID=8fc2ca8ae2ccc44f2e41f875f37e5caf
312,284557,Attil,32.37,35.07,73.61599999999993,78,2.1,0,http://api.openweathermap.org/data/2.5/weather?id=284557&APPID=8fc2ca8ae2ccc44f2e41f875f37e5caf
313,6556358,Chiemsee,47.87,12.42,74.13799999999998,50,3.1,75,http://api.openweathermap.org/data/2.5/weather?id=6556358&APPID=8fc2ca8ae2ccc44f2e41f875f37e5caf
314,2865729,Neuengamme,53.43,10.23,73.83199999999994,57,1.0,40,http://api.openweathermap.org/data/2.5/weather?id=2865729&APPID=8fc2ca8ae2ccc44f2e41f875f37e5caf
315,7604745,Ozerki,56.41,46.78,49.99999999999994,71,10.0,40,http://api.openweathermap.org/data/2.5/weather?id=7604745&APPID=8fc2ca8ae2ccc44f2e41f875f37e5caf
316,2153171,Pilton,-27.92,152.12,36.49999999999994,86,2.34,0,http://api.openweathermap.org/data/2.5/weather?id=2153171&APPID=8fc2ca8ae2ccc44f2e41f875f37e5caf
317,2638977,Rugeley,52.76,-1.94,59.036,100,1.5,90,http://api.openweathermap.org/data/2.5/weather?id=2638977&APPID=8fc2ca8ae2ccc44f2e41f875f37e5caf
318,3217367,Schlaiten,46.88,12.65,50.973799999999926,79,0.76,64,http://api.openweathermap.org/data/2.5/weather?id=3217367&APPID=8fc2ca8ae2ccc44f2e41f875f37e5caf
319,3027673,Chabris,47.25,1.65,61.627999999999986,100,2.29,90,http://api.openweathermap.org/data/2.5/weather?id=3027673&APPID=8fc2ca8ae2ccc44f2e41f875f37e5caf
320,2795106,Ichtegem,51.1,3.02,63.1760000000001,93,4.6,75,http://api.openweathermap.org/data/2.5/weather?id=2795106&APPID=8fc2ca8ae2ccc44f2e41f875f37e5caf
321,3217446,Chiopris,45.93,13.4,73.94,78,1.0,0,http://api.openweathermap.org/data/2.5/weather?id=3217446&APPID=8fc2ca8ae2ccc44f2e41f875f37e5caf
322,3401340,Cupira,-8.62,-35.95,72.30379999999997,79,3.09,80,http://api.openweathermap.org/data/2.5/weather?id=3401340&APPID=8fc2ca8ae2ccc44f2e41f875f37e5caf
323,2876357,Lohberg,49.18,13.11,71.59999999999997,78,1.5,0,http://api.openweathermap.org/data/2.5/weather?id=2876357&APPID=8fc2ca8ae2ccc44f2e41f875f37e5caf
324,532675,Lysva,58.11,57.81,51.87379999999996,100,6.61,92,http://api.openweathermap.org/data/2.5/weather?id=532675&APPID=8fc2ca8ae2ccc44f2e41f875f37e5caf
325,7667386,Schroecken,47.26,10.09,59.34199999999993,88,2.6,75,http://api.openweathermap.org/data/2.5/weather?id=7667386&APPID=8fc2ca8ae2ccc44f2e41f875f37e5caf
326,4172206,Sawgrass,30.19,-81.37,76.118,100,1.5,90,http://api.openweathermap.org/data/2.5/weather?id=4172206&APPID=8fc2ca8ae2ccc44f2e41f875f37e5caf
327,2660893,Ennenda,47.03,9.08,66.54199999999997,68,1.5,40,http://api.openweathermap.org/data/2.5/weather?id=2660893&APPID=8fc2ca8ae2ccc44f2e41f875f37e5caf
328,2659907,Leukerbad,46.38,7.63,57.79400000000004,82,2.6,40,http://api.openweathermap.org/data/2.5/weather?id=2659907&APPID=8fc2ca8ae2ccc44f2e41f875f37e5caf
329,6553056,Kreuzau,50.73,6.48,74.642,69,1.5,20,http://api.openweathermap.org/data/2.5/weather?id=6553056&APPID=8fc2ca8ae2ccc44f2e41f875f37e5caf
330,2746801,Gemeente Steenbergen,51.6,4.32,69.02600000000001,83,1.5,90,http://api.openweathermap.org/data/2.5/weather?id=2746801&APPID=8fc2ca8ae2ccc44f2e41f875f37e5caf
331,6357831,Anquela del Ducado,40.97,-2.14,51.24380000000002,88,1.74,20,http://api.openweathermap.org/data/2.5/weather?id=6357831&APPID=8fc2ca8ae2ccc44f2e41f875f37e5caf
332,2821348,Tremmen,52.53,12.82,71.52800000000008,56,2.6,0,http://api.openweathermap.org/data/2.5/weather?id=2821348&APPID=8fc2ca8ae2ccc44f2e41f875f37e5caf
333,2871807,Merkelbach,50.65,7.75,73.39999999999992,69,1.5,0,http://api.openweathermap.org/data/2.5/weather?id=2871807&APPID=8fc2ca8ae2ccc44f2e41f875f37e5caf
334,2949903,Bersrod,50.62,8.85,72.24799999999999,82,1.5,20,http://api.openweathermap.org/data/2.5/weather?id=2949903&APPID=8fc2ca8ae2ccc44f2e41f875f37e5caf
335,4923531,Michigan City,41.71,-86.9,83.858,61,4.6,40,http://api.openweathermap.org/data/2.5/weather?id=4923531&APPID=8fc2ca8ae2ccc44f2e41f875f37e5caf
336,2881490,Landsham,48.19,11.78,70.10599999999994,68,2.6,0,http://api.openweathermap.org/data/2.5/weather?id=2881490&APPID=8fc2ca8ae2ccc44f2e41f875f37e5caf
337,8010661,Penedono,40.99,-7.39,53.58380000000005,89,3.26,0,http://api.openweathermap.org/data/2.5/weather?id=8010661&APPID=8fc2ca8ae2ccc44f2e41f875f37e5caf
338,6441802,Thurins,45.68,4.63,61.68199999999996,88,1.0,48,http://api.openweathermap.org/data/2.5/weather?id=6441802&APPID=8fc2ca8ae2ccc44f2e41f875f37e5caf
339,672964,Moftinu Mare,47.67,22.67,68.98999999999995,68,1.0,8,http://api.openweathermap.org/data/2.5/weather?id=672964&APPID=8fc2ca8ae2ccc44f2e41f875f37e5caf
340,1710753,Indulang,8.09,124.58,67.80379999999997,96,0.94,64,http://api.openweathermap.org/data/2.5/weather?id=1710753&APPID=8fc2ca8ae2ccc44f2e41f875f37e5caf
341,4682352,Coldspring,30.59,-95.13,91.36399999999998,41,3.6,40,http://api.openweathermap.org/data/2.5/weather?id=4682352&APPID=8fc2ca8ae2ccc44f2e41f875f37e5caf
342,2962361,An Muileann gCearr,53.53,-7.35,62.599999999999966,72,2.6,75,http://api.openweathermap.org/data/2.5/weather?id=2962361&APPID=8fc2ca8ae2ccc44f2e41f875f37e5caf
343,1271285,Ghogha,21.68,72.28,85.44380000000007,71,4.81,0,http://api.openweathermap.org/data/2.5/weather?id=1271285&APPID=8fc2ca8ae2ccc44f2e41f875f37e5caf
344,3112638,Punxin,42.37,-8.01,56.26399999999995,87,2.6,75,http://api.openweathermap.org/data/2.5/weather?id=3112638&APPID=8fc2ca8ae2ccc44f2e41f875f37e5caf
345,2851310,Quitzdorf,51.28,14.77,66.81379999999996,59,3.54,0,http://api.openweathermap.org/data/2.5/weather?id=2851310&APPID=8fc2ca8ae2ccc44f2e41f875f37e5caf
346,501166,Rostovskaya,60.48,41.64,43.05379999999997,49,8.66,44,http://api.openweathermap.org/data/2.5/weather?id=501166&APPID=8fc2ca8ae2ccc44f2e41f875f37e5caf
347,3028824,Cangey,47.47,1.06,63.122000000000014,88,1.0,0,http://api.openweathermap.org/data/2.5/weather?id=3028824&APPID=8fc2ca8ae2ccc44f2e41f875f37e5caf
348,3019459,Etampes,48.43,2.15,68.28799999999995,88,2.71,80,http://api.openweathermap.org/data/2.5/weather?id=3019459&APPID=8fc2ca8ae2ccc44f2e41f875f37e5caf
349,6358420,Siétamo,42.15,-0.25,60.80000000000001,82,1.5,0,http://api.openweathermap.org/data/2.5/weather?id=6358420&APPID=8fc2ca8ae2ccc44f2e41f875f37e5caf
350,6947479,Koeln-Ehrenfeld,50.95,6.92,75.02000000000004,69,1.5,0,http://api.openweathermap.org/data/2.5/weather?id=6947479&APPID=8fc2ca8ae2ccc44f2e41f875f37e5caf
351,3599788,Alotenango,14.48,-90.81,84.70400000000001,57,3.1,40,http://api.openweathermap.org/data/2.5/weather?id=3599788&APPID=8fc2ca8ae2ccc44f2e41f875f37e5caf
352,4483525,Orange County,36.07,-79.12,79.41199999999998,65,2.1,40,http://api.openweathermap.org/data/2.5/weather?id=4483525&APPID=8fc2ca8ae2ccc44f2e41f875f37e5caf
353,4341067,Seabrook,30.03,-90.01,89.34800000000001,62,2.6,40,http://api.openweathermap.org/data/2.5/weather?id=4341067&APPID=8fc2ca8ae2ccc44f2e41f875f37e5caf
354,6360351,Cipérez,40.97,-6.24,58.99999999999994,72,5.7,20,http://api.openweathermap.org/data/2.5/weather?id=6360351&APPID=8fc2ca8ae2ccc44f2e41f875f37e5caf
355,3134259,Torp,59.25,11.03,76.99999999999994,38,3.1,0,http://api.openweathermap.org/data/2.5/weather?id=3134259&APPID=8fc2ca8ae2ccc44f2e41f875f37e5caf
356,2650558,Earith,52.35,0.03,62.87000000000006,100,1.5,40,http://api.openweathermap.org/data/2.5/weather?id=2650558&APPID=8fc2ca8ae2ccc44f2e41f875f37e5caf
357,2734140,Senhora da Hora,41.19,-8.65,60.04400000000004,87,1.5,40,http://api.openweathermap.org/data/2.5/weather?id=2734140&APPID=8fc2ca8ae2ccc44f2e41f875f37e5caf
358,2938621,Dedeleben,52.03,10.89,66.19999999999999,82,3.1,75,http://api.openweathermap.org/data/2.5/weather?id=2938621&APPID=8fc2ca8ae2ccc44f2e41f875f37e5caf
359,3087994,Przedborz,51.09,19.87,69.78379999999999,61,1.89,56,http://api.openweathermap.org/data/2.5/weather?id=3087994&APPID=8fc2ca8ae2ccc44f2e41f875f37e5caf
360,7530835,Powiat oławski,50.96,17.31,67.99999999999994,64,3.6,0,http://api.openweathermap.org/data/2.5/weather?id=7530835&APPID=8fc2ca8ae2ccc44f2e41f875f37e5caf
361,7530834,Powiat oleśnicki,51.25,17.52,67.99999999999994,64,3.6,0,http://api.openweathermap.org/data/2.5/weather?id=7530834&APPID=8fc2ca8ae2ccc44f2e41f875f37e5caf
362,3433522,Hurlingham,-34.59,-58.64,58.38799999999998,72,4.6,75,http://api.openweathermap.org/data/2.5/weather?id=3433522&APPID=8fc2ca8ae2ccc44f2e41f875f37e5caf
363,681206,Cocora,44.73,27.05,63.213799999999935,53,2.14,0,http://api.openweathermap.org/data/2.5/weather?id=681206&APPID=8fc2ca8ae2ccc44f2e41f875f37e5caf
364,6617269,Tournai-sur-Dive,48.81,0.05,67.99999999999994,77,1.0,0,http://api.openweathermap.org/data/2.5/weather?id=6617269&APPID=8fc2ca8ae2ccc44f2e41f875f37e5caf
365,6295357,Schlieren / Boden,47.4,8.46,67.06400000000002,93,3.6,75,http://api.openweathermap.org/data/2.5/weather?id=6295357&APPID=8fc2ca8ae2ccc44f2e41f875f37e5caf
366,6552010,Nübel,54.57,9.58,68.44999999999999,72,4.6,44,http://api.openweathermap.org/data/2.5/weather?id=6552010&APPID=8fc2ca8ae2ccc44f2e41f875f37e5caf
367,7642903,Yonglu,19.94,110.47,78.80000000000001,100,2.0,0,http://api.openweathermap.org/data/2.5/weather?id=7642903&APPID=8fc2ca8ae2ccc44f2e41f875f37e5caf
368,2945778,Bottendorf,51.02,8.8,71.69,82,1.5,20,http://api.openweathermap.org/data/2.5/weather?id=2945778&APPID=8fc2ca8ae2ccc44f2e41f875f37e5caf
369,3126577,Cangas,42.26,-8.78,57.19999999999999,87,2.6,75,http://api.openweathermap.org/data/2.5/weather?id=3126577&APPID=8fc2ca8ae2ccc44f2e41f875f37e5caf
370,1894128,Wupo,19.18,110.07,69.8737999999999,90,0.91,0,http://api.openweathermap.org/data/2.5/weather?id=1894128&APPID=8fc2ca8ae2ccc44f2e41f875f37e5caf
371,3021690,Daugnague,44.27,-0.81,63.212000000000046,82,3.6,40,http://api.openweathermap.org/data/2.5/weather?id=3021690&APPID=8fc2ca8ae2ccc44f2e41f875f37e5caf
372,1253079,Vrindavan,27.58,77.7,87.42379999999997,45,2.61,64,http://api.openweathermap.org/data/2.5/weather?id=1253079&APPID=8fc2ca8ae2ccc44f2e41f875f37e5caf
373,7285834,Flaach,47.58,8.61,63.68000000000001,93,3.6,75,http://api.openweathermap.org/data/2.5/weather?id=7285834&APPID=8fc2ca8ae2ccc44f2e41f875f37e5caf
374,499906,Ryleyevo,55.34,38.09,63.71599999999995,37,6.0,0,http://api.openweathermap.org/data/2.5/weather?id=499906&APPID=8fc2ca8ae2ccc44f2e41f875f37e5caf
375,6955471,Province of Fermo,43.17,13.72,75.19999999999999,78,0.5,40,http://api.openweathermap.org/data/2.5/weather?id=6955471&APPID=8fc2ca8ae2ccc44f2e41f875f37e5caf
376,6554107,Weinähr,50.32,7.85,73.43599999999998,56,2.1,0,http://api.openweathermap.org/data/2.5/weather?id=6554107&APPID=8fc2ca8ae2ccc44f2e41f875f37e5caf
377,51966,Gobolka Shabeellaha Hoose,1.83,44.42,77.97379999999993,89,4.81,56,http://api.openweathermap.org/data/2.5/weather?id=51966&APPID=8fc2ca8ae2ccc44f2e41f875f37e5caf
378,3621153,Upala,10.9,-85.01,85.99999999999994,70,5.7,40,http://api.openweathermap.org/data/2.5/weather?id=3621153&APPID=8fc2ca8ae2ccc44f2e41f875f37e5caf
379,7041388,Sardār Colony,34.04,71.58,68.43380000000008,42,1.24,0,http://api.openweathermap.org/data/2.5/weather?id=7041388&APPID=8fc2ca8ae2ccc44f2e41f875f37e5caf
380,148449,Xocalı Rayonu,39.83,46.75,46.92379999999997,88,0.91,36,http://api.openweathermap.org/data/2.5/weather?id=148449&APPID=8fc2ca8ae2ccc44f2e41f875f37e5caf
381,6555349,Ruppertsweiler,49.2,7.68,73.97600000000006,53,3.1,75,http://api.openweathermap.org/data/2.5/weather?id=6555349&APPID=8fc2ca8ae2ccc44f2e41f875f37e5caf
382,6553360,Alsdorf,50.77,7.87,73.39999999999992,69,1.5,0,http://api.openweathermap.org/data/2.5/weather?id=6553360&APPID=8fc2ca8ae2ccc44f2e41f875f37e5caf
383,160552,Chato,-2.64,31.77,69.69380000000007,89,2.79,0,http://api.openweathermap.org/data/2.5/weather?id=160552&APPID=8fc2ca8ae2ccc44f2e41f875f37e5caf
384,2659502,Nendaz,46.18,7.3,50.81000000000006,82,2.6,40,http://api.openweathermap.org/data/2.5/weather?id=2659502&APPID=8fc2ca8ae2ccc44f2e41f875f37e5caf
385,293963,Orot,31.74,34.74,73.68800000000005,78,2.1,0,http://api.openweathermap.org/data/2.5/weather?id=293963&APPID=8fc2ca8ae2ccc44f2e41f875f37e5caf
386,2143199,Womboota,-35.92,144.58,46.38380000000001,90,4.26,0,http://api.openweathermap.org/data/2.5/weather?id=2143199&APPID=8fc2ca8ae2ccc44f2e41f875f37e5caf
387,2869867,Monchpfiffel-Nikolausrieth,51.38,11.37,70.68199999999996,73,0.5,0,http://api.openweathermap.org/data/2.5/weather?id=2869867&APPID=8fc2ca8ae2ccc44f2e41f875f37e5caf
388,2846831,Rieth,51.3,6.27,74.35399999999998,57,0.5,0,http://api.openweathermap.org/data/2.5/weather?id=2846831&APPID=8fc2ca8ae2ccc44f2e41f875f37e5caf
389,2020888,Lazo,43.38,133.9,49.35379999999998,92,1.04,8,http://api.openweathermap.org/data/2.5/weather?id=2020888&APPID=8fc2ca8ae2ccc44f2e41f875f37e5caf
390,3028049,Cazères-sur-l'Adour,43.76,-0.32,62.617999999999995,93,1.5,56,http://api.openweathermap.org/data/2.5/weather?id=3028049&APPID=8fc2ca8ae2ccc44f2e41f875f37e5caf
391,7872820,Euratsfeld,48.07,14.94,73.39999999999992,60,4.6,0,http://api.openweathermap.org/data/2.5/weather?id=7872820&APPID=8fc2ca8ae2ccc44f2e41f875f37e5caf
392,2812625,Weil der Stadt,48.75,8.87,73.39999999999992,56,2.1,0,http://api.openweathermap.org/data/2.5/weather?id=2812625&APPID=8fc2ca8ae2ccc44f2e41f875f37e5caf
393,823556,Khartsiz Pervyy,43.79,39.64,66.19999999999999,88,4.0,90,http://api.openweathermap.org/data/2.5/weather?id=823556&APPID=8fc2ca8ae2ccc44f2e41f875f37e5caf
394,4896555,Howard District,42.02,-87.67,83.96599999999995,66,3.1,75,http://api.openweathermap.org/data/2.5/weather?id=4896555&APPID=8fc2ca8ae2ccc44f2e41f875f37e5caf
395,866062,Iskateley,67.68,53.15,23.43380000000002,80,6.56,0,http://api.openweathermap.org/data/2.5/weather?id=866062&APPID=8fc2ca8ae2ccc44f2e41f875f37e5caf
396,400685,Al Fayşalīyah,24.64,46.78,93.19999999999999,9,2.1,0,http://api.openweathermap.org/data/2.5/weather?id=400685&APPID=8fc2ca8ae2ccc44f2e41f875f37e5caf
397,6553406,Idelberg,50.72,7.72,73.39999999999992,69,1.5,0,http://api.openweathermap.org/data/2.5/weather?id=6553406&APPID=8fc2ca8ae2ccc44f2e41f875f37e5caf
398,6552640,Burk,49.13,10.47,72.94999999999999,60,2.1,75,http://api.openweathermap.org/data/2.5/weather?id=6552640&APPID=8fc2ca8ae2ccc44f2e41f875f37e5caf
399,2819103,Untermarchtal,48.24,9.61,67.94599999999997,60,2.1,75,http://api.openweathermap.org/data/2.5/weather?id=2819103&APPID=8fc2ca8ae2ccc44f2e41f875f37e5caf
400,789603,Kanatlarci,41.21,21.5,62.599999999999966,67,1.0,40,http://api.openweathermap.org/data/2.5/weather?id=789603&APPID=8fc2ca8ae2ccc44f2e41f875f37e5caf
401,8133900,Dimos Orestiada,41.59,26.35,61.953799999999944,44,3.46,8,http://api.openweathermap.org/data/2.5/weather?id=8133900&APPID=8fc2ca8ae2ccc44f2e41f875f37e5caf
402,640694,Punkaharju,61.75,29.42,55.39999999999992,50,2.1,0,http://api.openweathermap.org/data/2.5/weather?id=640694&APPID=8fc2ca8ae2ccc44f2e41f875f37e5caf
403,1711593,Hinundayan,10.35,125.25,81.48380000000003,99,2.41,80,http://api.openweathermap.org/data/2.5/weather?id=1711593&APPID=8fc2ca8ae2ccc44f2e41f875f37e5caf
404,2881857,Laichingen,48.49,9.69,70.33999999999997,60,2.1,75,http://api.openweathermap.org/data/2.5/weather?id=2881857&APPID=8fc2ca8ae2ccc44f2e41f875f37e5caf
405,5127474,Moravia,42.71,-76.42,85.99999999999994,51,8.7,1,http://api.openweathermap.org/data/2.5/weather?id=5127474&APPID=8fc2ca8ae2ccc44f2e41f875f37e5caf
406,2647518,Hanslope,52.11,-0.83,62.23999999999995,93,2.1,75,http://api.openweathermap.org/data/2.5/weather?id=2647518&APPID=8fc2ca8ae2ccc44f2e41f875f37e5caf
407,7850151,Cimanggu,-7.23,106.84,70.95379999999994,96,1.39,24,http://api.openweathermap.org/data/2.5/weather?id=7850151&APPID=8fc2ca8ae2ccc44f2e41f875f37e5caf
408,3532326,Becal,20.45,-90.03,100.39999999999992,50,4.6,75,http://api.openweathermap.org/data/2.5/weather?id=3532326&APPID=8fc2ca8ae2ccc44f2e41f875f37e5caf
409,2161348,Kingower,-36.62,143.75,45.21379999999999,90,3.94,0,http://api.openweathermap.org/data/2.5/weather?id=2161348&APPID=8fc2ca8ae2ccc44f2e41f875f37e5caf
410,3030943,Bourguenolles,48.8,-1.3,64.39999999999992,82,2.6,0,http://api.openweathermap.org/data/2.5/weather?id=3030943&APPID=8fc2ca8ae2ccc44f2e41f875f37e5caf
411,1679893,Villa Isla,15.77,120.87,74.46379999999994,96,1.01,8,http://api.openweathermap.org/data/2.5/weather?id=1679893&APPID=8fc2ca8ae2ccc44f2e41f875f37e5caf
412,3180871,Candelo,45.55,8.11,48.79400000000004,93,4.6,75,http://api.openweathermap.org/data/2.5/weather?id=3180871&APPID=8fc2ca8ae2ccc44f2e41f875f37e5caf
413,2918149,Grammow,54.05,12.63,73.39999999999992,49,4.1,20,http://api.openweathermap.org/data/2.5/weather?id=2918149&APPID=8fc2ca8ae2ccc44f2e41f875f37e5caf
414,2980301,Sainte-Terre,44.83,-0.12,63.48200000000003,72,4.1,0,http://api.openweathermap.org/data/2.5/weather?id=2980301&APPID=8fc2ca8ae2ccc44f2e41f875f37e5caf
415,2850490,Rangsdorf,52.29,13.42,69.07999999999998,77,1.5,0,http://api.openweathermap.org/data/2.5/weather?id=2850490&APPID=8fc2ca8ae2ccc44f2e41f875f37e5caf
416,3448824,Sao Joaquim de Bicas,-20.05,-44.27,72.1760000000001,33,4.6,20,http://api.openweathermap.org/data/2.5/weather?id=3448824&APPID=8fc2ca8ae2ccc44f2e41f875f37e5caf
417,5155438,Gambier,40.38,-82.4,83.74999999999994,69,7.2,40,http://api.openweathermap.org/data/2.5/weather?id=5155438&APPID=8fc2ca8ae2ccc44f2e41f875f37e5caf
418,4932823,Charlton,42.14,-71.97,78.63799999999998,57,3.6,75,http://api.openweathermap.org/data/2.5/weather?id=4932823&APPID=8fc2ca8ae2ccc44f2e41f875f37e5caf
419,609835,Imeni Gazety Pravda,50.87,52.08,64.39999999999992,31,9.0,0,http://api.openweathermap.org/data/2.5/weather?id=609835&APPID=8fc2ca8ae2ccc44f2e41f875f37e5caf
420,2387546,Bozoum,6.32,16.38,70.86380000000003,91,0.54,24,http://api.openweathermap.org/data/2.5/weather?id=2387546&APPID=8fc2ca8ae2ccc44f2e41f875f37e5caf
421,6358017,San Andrés del Rey,40.63,-2.82,60.80000000000001,93,1.0,75,http://api.openweathermap.org/data/2.5/weather?id=6358017&APPID=8fc2ca8ae2ccc44f2e41f875f37e5caf
422,4554800,Watonga,35.84,-98.41,91.39999999999992,52,4.14,1,http://api.openweathermap.org/data/2.5/weather?id=4554800&APPID=8fc2ca8ae2ccc44f2e41f875f37e5caf
423,6359587,Artajona,42.59,-1.75,60.9260000000001,87,1.24,75,http://api.openweathermap.org/data/2.5/weather?id=6359587&APPID=8fc2ca8ae2ccc44f2e41f875f37e5caf
424,3110678,San Esteban de Gormaz,41.57,-3.2,52.1438,92,1.46,76,http://api.openweathermap.org/data/2.5/weather?id=3110678&APPID=8fc2ca8ae2ccc44f2e41f875f37e5caf
425,2652725,Clunderwen,51.84,-4.73,58.99999999999994,93,2.6,20,http://api.openweathermap.org/data/2.5/weather?id=2652725&APPID=8fc2ca8ae2ccc44f2e41f875f37e5caf
426,6445060,Sainte-Maxime,43.3,6.63,70.41199999999998,78,2.1,75,http://api.openweathermap.org/data/2.5/weather?id=6445060&APPID=8fc2ca8ae2ccc44f2e41f875f37e5caf
427,473119,Vlaski,58.75,33.5,58.80379999999997,43,6.51,44,http://api.openweathermap.org/data/2.5/weather?id=473119&APPID=8fc2ca8ae2ccc44f2e41f875f37e5caf
428,4336232,Ouachita Parish,32.48,-92.15,91.99400000000009,52,3.6,40,http://api.openweathermap.org/data/2.5/weather?id=4336232&APPID=8fc2ca8ae2ccc44f2e41f875f37e5caf
429,631449,Vimpeli,63.17,23.92,54.1237999999999,40,4.06,0,http://api.openweathermap.org/data/2.5/weather?id=631449&APPID=8fc2ca8ae2ccc44f2e41f875f37e5caf
430,2658153,Versam,46.79,9.34,48.19999999999993,93,0.5,75,http://api.openweathermap.org/data/2.5/weather?id=2658153&APPID=8fc2ca8ae2ccc44f2e41f875f37e5caf
431,2796810,Habay,49.73,5.62,71.59999999999997,64,2.6,0,http://api.openweathermap.org/data/2.5/weather?id=2796810&APPID=8fc2ca8ae2ccc44f2e41f875f37e5caf
432,3100912,Czulow,50.06,19.7,65.76800000000009,64,1.0,0,http://api.openweathermap.org/data/2.5/weather?id=3100912&APPID=8fc2ca8ae2ccc44f2e41f875f37e5caf
433,1150964,Changwat Ranong,9.75,98.67,79.68380000000008,100,1.26,44,http://api.openweathermap.org/data/2.5/weather?id=1150964&APPID=8fc2ca8ae2ccc44f2e41f875f37e5caf
434,1256974,Sausar,21.65,78.78,91.39999999999992,43,3.1,40,http://api.openweathermap.org/data/2.5/weather?id=1256974&APPID=8fc2ca8ae2ccc44f2e41f875f37e5caf
435,1798056,Qigong,24.31,112.57,74.55379999999997,84,0.94,36,http://api.openweathermap.org/data/2.5/weather?id=1798056&APPID=8fc2ca8ae2ccc44f2e41f875f37e5caf
436,2994159,Arrondissement de Metz-Campagne,49.08,6.25,70.19599999999997,83,1.5,68,http://api.openweathermap.org/data/2.5/weather?id=2994159&APPID=8fc2ca8ae2ccc44f2e41f875f37e5caf
437,6541516,Deiva Marina,44.22,9.52,73.39999999999992,73,1.0,0,http://api.openweathermap.org/data/2.5/weather?id=6541516&APPID=8fc2ca8ae2ccc44f2e41f875f37e5caf
438,4168062,Pebble Creek,28.15,-82.35,77.89999999999992,88,2.6,75,http://api.openweathermap.org/data/2.5/weather?id=4168062&APPID=8fc2ca8ae2ccc44f2e41f875f37e5caf
439,3373300,Biscoitos,38.78,-27.25,64.39999999999992,59,3.81,20,http://api.openweathermap.org/data/2.5/weather?id=3373300&APPID=8fc2ca8ae2ccc44f2e41f875f37e5caf
440,5258916,Kronenwetter,44.82,-89.59,67.55000000000001,100,2.1,90,http://api.openweathermap.org/data/2.5/weather?id=5258916&APPID=8fc2ca8ae2ccc44f2e41f875f37e5caf
441,6535281,Pila,45.77,8.08,53.31200000000007,93,4.6,75,http://api.openweathermap.org/data/2.5/weather?id=6535281&APPID=8fc2ca8ae2ccc44f2e41f875f37e5caf
442,684183,Boroaia,47.35,26.33,62.599999999999966,59,1.0,0,http://api.openweathermap.org/data/2.5/weather?id=684183&APPID=8fc2ca8ae2ccc44f2e41f875f37e5caf
443,7390272,Kabor,-8.62,122.21,78.42379999999997,100,1.74,0,http://api.openweathermap.org/data/2.5/weather?id=7390272&APPID=8fc2ca8ae2ccc44f2e41f875f37e5caf
444,2957763,Landkreis Altenburg,51.0,12.42,69.80000000000001,73,3.6,75,http://api.openweathermap.org/data/2.5/weather?id=2957763&APPID=8fc2ca8ae2ccc44f2e41f875f37e5caf
445,691803,Tatarbunary,45.84,29.61,60.603800000000035,59,1.44,0,http://api.openweathermap.org/data/2.5/weather?id=691803&APPID=8fc2ca8ae2ccc44f2e41f875f37e5caf
446,3028033,Céaux,48.63,-1.39,64.39999999999992,82,2.6,0,http://api.openweathermap.org/data/2.5/weather?id=3028033&APPID=8fc2ca8ae2ccc44f2e41f875f37e5caf
447,5000950,Marquette County,46.53,-87.63,75.19999999999999,64,4.6,40,http://api.openweathermap.org/data/2.5/weather?id=5000950&APPID=8fc2ca8ae2ccc44f2e41f875f37e5caf
448,7852800,Tegaljaya,-7.21,106.92,70.95379999999994,96,1.39,24,http://api.openweathermap.org/data/2.5/weather?id=7852800&APPID=8fc2ca8ae2ccc44f2e41f875f37e5caf
449,3027551,Chaleins,46.03,4.8,61.96999999999997,88,1.0,88,http://api.openweathermap.org/data/2.5/weather?id=3027551&APPID=8fc2ca8ae2ccc44f2e41f875f37e5caf
450,2249222,Louga,15.62,-16.22,71.59999999999997,83,4.1,0,http://api.openweathermap.org/data/2.5/weather?id=2249222&APPID=8fc2ca8ae2ccc44f2e41f875f37e5caf
451,2936721,Dittlofsroda,50.15,9.77,66.00380000000001,80,1.26,0,http://api.openweathermap.org/data/2.5/weather?id=2936721&APPID=8fc2ca8ae2ccc44f2e41f875f37e5caf
452,799311,Guzeripl’,43.99,40.14,66.19999999999999,88,4.0,90,http://api.openweathermap.org/data/2.5/weather?id=799311&APPID=8fc2ca8ae2ccc44f2e41f875f37e5caf
453,1816544,Beitou,25.0,114.58,75.36380000000003,87,1.59,76,http://api.openweathermap.org/data/2.5/weather?id=1816544&APPID=8fc2ca8ae2ccc44f2e41f875f37e5caf
454,1923383,Baying,25.65,115.97,74.82379999999995,91,1.61,76,http://api.openweathermap.org/data/2.5/weather?id=1923383&APPID=8fc2ca8ae2ccc44f2e41f875f37e5caf
455,6433135,Sorigny,47.23,0.7,66.19999999999999,88,1.0,0,http://api.openweathermap.org/data/2.5/weather?id=6433135&APPID=8fc2ca8ae2ccc44f2e41f875f37e5caf
456,2978366,Saint-Martin-de-Mieux,48.87,-0.23,67.99999999999994,77,1.0,0,http://api.openweathermap.org/data/2.5/weather?id=2978366&APPID=8fc2ca8ae2ccc44f2e41f875f37e5caf
457,2753439,Hulst,51.28,4.05,74.74999999999994,83,1.5,90,http://api.openweathermap.org/data/2.5/weather?id=2753439&APPID=8fc2ca8ae2ccc44f2e41f875f37e5caf
458,2993834,Mimbaste,43.65,-0.97,62.56400000000002,72,3.1,44,http://api.openweathermap.org/data/2.5/weather?id=2993834&APPID=8fc2ca8ae2ccc44f2e41f875f37e5caf
459,4672757,Beach City,29.66,-94.89,89.34800000000001,59,2.6,75,http://api.openweathermap.org/data/2.5/weather?id=4672757&APPID=8fc2ca8ae2ccc44f2e41f875f37e5caf
460,6356764,Coria,39.98,-6.5,60.42379999999997,81,1.16,92,http://api.openweathermap.org/data/2.5/weather?id=6356764&APPID=8fc2ca8ae2ccc44f2e41f875f37e5caf
461,1675720,Xianeibu,25.02,121.54,81.57199999999995,88,1.0,40,http://api.openweathermap.org/data/2.5/weather?id=1675720&APPID=8fc2ca8ae2ccc44f2e41f875f37e5caf
462,2519632,Cenizate,39.3,-1.65,64.39999999999992,63,2.6,0,http://api.openweathermap.org/data/2.5/weather?id=2519632&APPID=8fc2ca8ae2ccc44f2e41f875f37e5caf
463,3190906,Sikirevci,45.11,18.46,67.99999999999994,72,3.1,0,http://api.openweathermap.org/data/2.5/weather?id=3190906&APPID=8fc2ca8ae2ccc44f2e41f875f37e5caf
464,8073123,Pacing,-6.77,111.53,80.85380000000004,100,1.29,32,http://api.openweathermap.org/data/2.5/weather?id=8073123&APPID=8fc2ca8ae2ccc44f2e41f875f37e5caf
465,72752,Maidi,16.32,42.81,94.99999999999994,59,5.54,0,http://api.openweathermap.org/data/2.5/weather?id=72752&APPID=8fc2ca8ae2ccc44f2e41f875f37e5caf
466,2519744,Castil de Campos,37.49,-4.14,64.39999999999992,55,4.1,20,http://api.openweathermap.org/data/2.5/weather?id=2519744&APPID=8fc2ca8ae2ccc44f2e41f875f37e5caf
467,4940094,Hudson,42.39,-71.57,76.83800000000002,44,4.1,1,http://api.openweathermap.org/data/2.5/weather?id=4940094&APPID=8fc2ca8ae2ccc44f2e41f875f37e5caf
468,6555637,Weisenbach,48.73,8.35,75.19999999999999,60,2.6,40,http://api.openweathermap.org/data/2.5/weather?id=6555637&APPID=8fc2ca8ae2ccc44f2e41f875f37e5caf
469,3181269,Caianello,41.31,14.09,77.84600000000006,47,1.0,20,http://api.openweathermap.org/data/2.5/weather?id=3181269&APPID=8fc2ca8ae2ccc44f2e41f875f37e5caf
470,7037642,Selorejo,-8.52,114.19,67.44380000000007,100,0.36,32,http://api.openweathermap.org/data/2.5/weather?id=7037642&APPID=8fc2ca8ae2ccc44f2e41f875f37e5caf
471,3650095,Yanacocha,-3.98,-79.22,67.71379999999994,60,0.76,64,http://api.openweathermap.org/data/2.5/weather?id=3650095&APPID=8fc2ca8ae2ccc44f2e41f875f37e5caf
472,2019266,Nikolayevka,48.55,134.79,51.799999999999955,87,5.0,20,http://api.openweathermap.org/data/2.5/weather?id=2019266&APPID=8fc2ca8ae2ccc44f2e41f875f37e5caf
473,4058543,Deatsville,32.61,-86.4,75.77600000000001,94,2.6,20,http://api.openweathermap.org/data/2.5/weather?id=4058543&APPID=8fc2ca8ae2ccc44f2e41f875f37e5caf
474,2804790,Zemmin,53.92,13.26,73.39999999999992,49,4.1,20,http://api.openweathermap.org/data/2.5/weather?id=2804790&APPID=8fc2ca8ae2ccc44f2e41f875f37e5caf
475,2845383,Rollwitz,53.47,13.98,71.59999999999997,53,2.6,20,http://api.openweathermap.org/data/2.5/weather?id=2845383&APPID=8fc2ca8ae2ccc44f2e41f875f37e5caf
476,3134827,Tangvall,58.1,7.81,71.59999999999997,56,3.6,0,http://api.openweathermap.org/data/2.5/weather?id=3134827&APPID=8fc2ca8ae2ccc44f2e41f875f37e5caf
477,486923,Subbotin,50.14,43.62,67.80379999999997,43,5.29,12,http://api.openweathermap.org/data/2.5/weather?id=486923&APPID=8fc2ca8ae2ccc44f2e41f875f37e5caf
478,494304,Shipitsyno,61.28,46.52,41.25380000000001,62,8.51,92,http://api.openweathermap.org/data/2.5/weather?id=494304&APPID=8fc2ca8ae2ccc44f2e41f875f37e5caf
479,6616147,Le Buisson-de-Cadouin,44.85,0.91,60.72800000000001,93,2.6,80,http://api.openweathermap.org/data/2.5/weather?id=6616147&APPID=8fc2ca8ae2ccc44f2e41f875f37e5caf
480,6449294,Castella,44.32,0.68,61.77199999999999,93,0.5,92,http://api.openweathermap.org/data/2.5/weather?id=6449294&APPID=8fc2ca8ae2ccc44f2e41f875f37e5caf
481,4719720,Pleasanton,28.97,-98.48,94.65799999999996,34,5.1,1,http://api.openweathermap.org/data/2.5/weather?id=4719720&APPID=8fc2ca8ae2ccc44f2e41f875f37e5caf
482,3066885,Rez,50.18,14.36,67.20799999999991,82,3.1,0,http://api.openweathermap.org/data/2.5/weather?id=3066885&APPID=8fc2ca8ae2ccc44f2e41f875f37e5caf
483,6427323,Méry-Corbon,49.13,-0.08,67.99999999999994,77,1.0,0,http://api.openweathermap.org/data/2.5/weather?id=6427323&APPID=8fc2ca8ae2ccc44f2e41f875f37e5caf
484,1688828,San Pablo,14.97,120.62,82.47200000000004,74,1.0,75,http://api.openweathermap.org/data/2.5/weather?id=1688828&APPID=8fc2ca8ae2ccc44f2e41f875f37e5caf
485,3079403,Bezdruzice,49.91,12.97,68.89999999999992,88,1.5,0,http://api.openweathermap.org/data/2.5/weather?id=3079403&APPID=8fc2ca8ae2ccc44f2e41f875f37e5caf
486,722876,Anarcs,48.18,22.11,69.80000000000001,68,0.79,24,http://api.openweathermap.org/data/2.5/weather?id=722876&APPID=8fc2ca8ae2ccc44f2e41f875f37e5caf
487,2523237,San Vito sullIonio,38.71,16.41,73.39999999999992,73,1.0,20,http://api.openweathermap.org/data/2.5/weather?id=2523237&APPID=8fc2ca8ae2ccc44f2e41f875f37e5caf
488,3081404,Wozniki,49.94,19.49,65.87600000000003,64,1.0,0,http://api.openweathermap.org/data/2.5/weather?id=3081404&APPID=8fc2ca8ae2ccc44f2e41f875f37e5caf
489,6549998,Belrieth,50.53,10.5,71.59999999999997,73,0.5,0,http://api.openweathermap.org/data/2.5/weather?id=6549998&APPID=8fc2ca8ae2ccc44f2e41f875f37e5caf
490,6535820,Torre Canavese,45.39,7.76,41.089999999999975,100,3.1,90,http://api.openweathermap.org/data/2.5/weather?id=6535820&APPID=8fc2ca8ae2ccc44f2e41f875f37e5caf
491,583322,Aleksandrovka,51.27,46.85,58.99999999999994,87,7.0,75,http://api.openweathermap.org/data/2.5/weather?id=583322&APPID=8fc2ca8ae2ccc44f2e41f875f37e5caf
492,7084341,Krajan Selatan,-8.22,114.37,74.82379999999995,95,2.16,0,http://api.openweathermap.org/data/2.5/weather?id=7084341&APPID=8fc2ca8ae2ccc44f2e41f875f37e5caf
493,6361815,Santa Ana de Pusa,39.77,-4.72,63.843800000000044,55,2.34,64,http://api.openweathermap.org/data/2.5/weather?id=6361815&APPID=8fc2ca8ae2ccc44f2e41f875f37e5caf
494,3214109,Ortenaukreis,48.42,8.0,75.93800000000005,50,4.1,48,http://api.openweathermap.org/data/2.5/weather?id=3214109&APPID=8fc2ca8ae2ccc44f2e41f875f37e5caf
495,2513640,Montefrio,37.32,-4.01,64.39999999999992,55,4.1,20,http://api.openweathermap.org/data/2.5/weather?id=2513640&APPID=8fc2ca8ae2ccc44f2e41f875f37e5caf
496,785285,Surdulica,42.69,22.17,54.75380000000001,72,0.84,20,http://api.openweathermap.org/data/2.5/weather?id=785285&APPID=8fc2ca8ae2ccc44f2e41f875f37e5caf
497,2841423,Sarching,49.02,12.23,73.39999999999992,53,1.5,8,http://api.openweathermap.org/data/2.5/weather?id=2841423&APPID=8fc2ca8ae2ccc44f2e41f875f37e5caf
498,2510801,Sonseca,39.68,-3.97,60.15379999999999,60,2.16,44,http://api.openweathermap.org/data/2.5/weather?id=2510801&APPID=8fc2ca8ae2ccc44f2e41f875f37e5caf
499,2152256,Quinalow,-27.12,151.63,35.599999999999966,80,4.6,0,http://api.openweathermap.org/data/2.5/weather?id=2152256&APPID=8fc2ca8ae2ccc44f2e41f875f37e5caf
